cp_ville,Région,Département,Gazole,SP98,SP95,E85,E10,GPLc,Latitude,Longitude,Nombre de stations
01000 Bourg-en-Bresse,Auvergne-Rhône-Alpes,Ain,1.8407142857142857,1.8506666666666665,1.8288,0.993,1.7733999999999999,,46.20379722857143,5.2366706857142855,7
01000 Saint-Denis-lès-Bourg,Auvergne-Rhône-Alpes,Ain,1.8925,1.9220000000000002,1.822,1.0,1.8455,,46.201,5.199,2
01090 Montceaux,Auvergne-Rhône-Alpes,Ain,1.878,1.893,,,1.795,,46.096,4.775,1
01100 Arbent,Auvergne-Rhône-Alpes,Ain,1.8330000000000002,1.92,1.8415,,1.776,0.969,46.27802,5.66141,2
01100 Oyonnax,Auvergne-Rhône-Alpes,Ain,1.87375,1.9166666666666667,1.85,0.9983333333333334,1.814,0.964,46.25725,5.647,4
01110 Plateau d'Hauteville,Auvergne-Rhône-Alpes,Ain,1.844,1.879,,,1.809,,45.978,5.599,1
01120 Dagneux,Auvergne-Rhône-Alpes,Ain,2.0135,2.0745,,1.239,2.0145,,45.846000000000004,5.072,2
01120 La Boisse,Auvergne-Rhône-Alpes,Ain,1.877,1.957,,,1.847,,45.846,5.041,1
01120 Montluel,Auvergne-Rhône-Alpes,Ain,1.799,1.8315000000000001,,0.999,1.759,,45.85,5.0535,2
01130 Le Poizat-Lalleyriat,Auvergne-Rhône-Alpes,Ain,1.87,1.95,1.93,,,,46.167,5.691,1
01130 Nantua,Auvergne-Rhône-Alpes,Ain,1.837,1.899,,,1.817,,46.158,5.604,1
01140 Saint-Didier-sur-Chalaronne,Auvergne-Rhône-Alpes,Ain,1.799,,,0.999,1.759,,46.18,4.817,1
01150 Lagnieu,Auvergne-Rhône-Alpes,Ain,1.837,1.879,1.809,,1.804,,45.902,5.346,1
01150 Saint-Vulbas,Auvergne-Rhône-Alpes,Ain,1.927,1.99,,1.099,1.887,,45.839,5.278,1
01160 Neuville-sur-Ain,Auvergne-Rhône-Alpes,Ain,1.785,1.824,,0.998,1.755,,46.074,5.376,1
01160 Pont-d'Ain,Auvergne-Rhône-Alpes,Ain,1.8415,1.9015,1.85,,1.8175,,46.0467801828,5.3398644035850005,2
01170 Gex,Auvergne-Rhône-Alpes,Ain,1.8623333333333332,1.891333333333333,1.862,0.998,1.827,,46.33159,6.0621133333333335,3
01170 Ségny,Auvergne-Rhône-Alpes,Ain,1.832,1.847,1.831,0.993,1.792,,46.293,6.079,1
01190 Saint-Bénigne,Auvergne-Rhône-Alpes,Ain,1.869,1.909,1.879,,,,46.442,4.97,1
01200 Valserhône,Auvergne-Rhône-Alpes,Ain,1.869,1.901,1.849,,1.839,,46.115,5.817500000000001,2
01210 Ferney-Voltaire,Auvergne-Rhône-Alpes,Ain,1.821,1.895,1.825,0.952,1.749,,46.248515,6.106585,2
01220 Divonne-les-Bains,Auvergne-Rhône-Alpes,Ain,1.885,1.915,1.879,,,,46.343,6.141,1
01230 Saint-Rambert-en-Bugey,Auvergne-Rhône-Alpes,Ain,1.92,1.95,1.88,,,,45.942,5.432,1
01230 Torcieu,Auvergne-Rhône-Alpes,Ain,1.94,,1.95,,,,45.921,5.394,1
01250 Ceyzériat,Auvergne-Rhône-Alpes,Ain,1.823,1.841,,0.998,1.769,,46.179720878139,5.3249462851004,1
01250 Jasseron,Auvergne-Rhône-Alpes,Ain,2.072,2.097,,1.229,2.037,1.099,46.2042464125695,5.2952874210046,2
01250 Tossiat,Auvergne-Rhône-Alpes,Ain,1.929,1.919,1.889,,,,46.13408,5.2888,1
01270 Coligny,Auvergne-Rhône-Alpes,Ain,1.979,1.99,,,,,46.382,5.345,1
01290 Laiz,Auvergne-Rhône-Alpes,Ain,1.87,1.89,,1.02,1.79,,46.255,4.89,1
01300 Belley,Auvergne-Rhône-Alpes,Ain,1.8820000000000001,1.915,1.88,,,,45.757859999999994,5.684670000000001,2
01300 Chazey-Bons,Auvergne-Rhône-Alpes,Ain,1.845,1.874,,,1.786,,45.778,5.689,1
01310 Confrançon,Auvergne-Rhône-Alpes,Ain,1.909,1.939,1.839,,,,46.256,5.057,1
01310 Polliat,Auvergne-Rhône-Alpes,Ain,1.947,1.99,,,1.887,,46.2508258935,5.11211332738,1
01320 Chalamont,Auvergne-Rhône-Alpes,Ain,1.9195,1.859,1.99,,1.799,,45.9945,5.173,2
01330 Ambérieux-en-Dombes,Auvergne-Rhône-Alpes,Ain,1.937,1.99,,,1.887,,45.999,4.899,1
01330 Villars-les-Dombes,Auvergne-Rhône-Alpes,Ain,1.849,1.859,1.829,,1.799,,46.007,5.035,1
01340 Attignat,Auvergne-Rhône-Alpes,Ain,1.992,1.993,1.961,1.119,,,46.279,5.165,1
01340 Jayat,Auvergne-Rhône-Alpes,Ain,1.78,1.823,1.784,0.998,1.747,,46.346,5.126,1
01340 Malafretaz,Auvergne-Rhône-Alpes,Ain,1.947,1.99,,,1.887,,46.323,5.137,1
01340 Montrevel-en-Bresse,Auvergne-Rhône-Alpes,Ain,1.821,,1.813,,1.784,,46.334726399999994,5.1260021,1
01350 Culoz,Auvergne-Rhône-Alpes,Ain,1.8895,1.897,1.869,,1.787,,45.847811740859,5.7784899824634,2
01360 Balan,Auvergne-Rhône-Alpes,Ain,1.99,1.99,1.99,,,,45.84889,5.11958,1
01360 Loyettes,Auvergne-Rhône-Alpes,Ain,1.929,,1.949,,,,45.779,5.213,1
01370 Saint-Étienne-du-Bois,Auvergne-Rhône-Alpes,Ain,1.799,1.839,,,1.759,,46.27,5.293,1
01380 Bâgé-Dommartin,Auvergne-Rhône-Alpes,Ain,1.819,,1.819,,1.779,,46.313,4.942,1
01390 Mionnay,Auvergne-Rhône-Alpes,Ain,2.089,2.168,,,2.048,,45.8872529900255,4.8938108939491,2
01390 Saint-André-de-Corcy,Auvergne-Rhône-Alpes,Ain,1.8816666666666666,1.936,1.859,0.999,1.8505,,45.929,4.968000000000001,3
01400 Châtillon-sur-Chalaronne,Auvergne-Rhône-Alpes,Ain,1.8303333333333331,1.851,1.8119999999999998,0.998,1.763,,46.117499979849995,4.9549981874075,4
01430 Ceignes,Auvergne-Rhône-Alpes,Ain,2.0395,2.0795,,1.239,2.0295,1.0765,46.120897812470005,5.495333139764551,2
01430 Maillat,Auvergne-Rhône-Alpes,Ain,1.973,,1.949,,1.918,,46.128,5.54,1
01440 Viriat,Auvergne-Rhône-Alpes,Ain,1.9293333333333333,1.9545,1.925,,1.887,,46.23033333333333,5.234666666666667,3
01460 Montréal-la-Cluse,Auvergne-Rhône-Alpes,Ain,1.849,1.869,1.839,,,,46.17225,5.57729,1
01460 Nurieux-Volognat,Auvergne-Rhône-Alpes,Ain,1.975,,1.936,,,,46.187,5.526,1
01460 Port,Auvergne-Rhône-Alpes,Ain,1.859,1.889,,0.999,1.819,,46.166,5.571,1
01470 Briord,Auvergne-Rhône-Alpes,Ain,1.819,1.869,,,1.789,,45.78776,5.45414,1
01470 Montagnieu,Auvergne-Rhône-Alpes,Ain,,,,,,,45.7951,5.46083,1
01480 Jassans-Riottier,Auvergne-Rhône-Alpes,Ain,1.863,1.868,1.855,,,,45.98403,4.75694,1
01480 Messimy-sur-Saône,Auvergne-Rhône-Alpes,Ain,1.967,1.99,,,1.899,,46.049817093241,4.765510617678601,1
01500 Ambérieu-en-Bugey,Auvergne-Rhône-Alpes,Ain,1.91175,1.958,2.019,0.999,1.8155000000000001,1.047,45.9578599385635,5.35173019641785,4
01500 Château-Gaillard,Auvergne-Rhône-Alpes,Ain,1.944,,1.9340000000000002,,,,45.97596,5.309125,2
01510 Artemare,Auvergne-Rhône-Alpes,Ain,1.879,1.889,1.859,,,,45.873,5.698,1
01540 Vonnas,Auvergne-Rhône-Alpes,Ain,1.7934999999999999,1.855,1.769,,1.7635,,46.2055,4.9945,2
01560 Saint-Trivier-de-Courtes,Auvergne-Rhône-Alpes,Ain,1.782,1.809,1.785,,,,46.459,5.075,1
01570 Feillens,Auvergne-Rhône-Alpes,Ain,1.819,1.871,,0.998,1.776,,46.329,4.885,1
01590 Dortan,Auvergne-Rhône-Alpes,Ain,1.97,1.95,1.94,,,,46.322,5.656,1
01590 Lavancia-Epercy,Bourgogne-Franche-Comté,Jura,1.859,,,0.998,1.819,,46.325,5.672,1
01600 Massieux,Auvergne-Rhône-Alpes,Ain,1.872,1.901,,,1.806,,45.904,4.82,1
01600 Trévoux,Auvergne-Rhône-Alpes,Ain,1.834,1.85,1.828,,,,45.934724745,4.79062770497,1
01630 Péron,Auvergne-Rhône-Alpes,Ain,1.809,1.845,,0.999,1.775,,46.183,5.929,1
01630 Saint-Genis-Pouilly,Auvergne-Rhône-Alpes,Ain,1.8744999999999998,1.845,,0.999,1.8275,,46.252629999999996,6.02725,2
01640 Saint-Jean-le-Vieux,Auvergne-Rhône-Alpes,Ain,,,,,,,46.03487603046899,5.3894526948339,1
01700 Beynost,Auvergne-Rhône-Alpes,Ain,1.762,1.828,1.778,0.946,1.736,,45.826,4.999,1
01700 Miribel,Auvergne-Rhône-Alpes,Ain,1.829,1.899,,,1.819,,45.849500000000006,4.942,2
01710 Thoiry,Auvergne-Rhône-Alpes,Ain,1.87,1.89,,,1.82,,46.227,5.993,1
01750 Replonges,Auvergne-Rhône-Alpes,Ain,1.827,,1.845,,1.775,,46.299,4.881,1
01800 Meximieux,Auvergne-Rhône-Alpes,Ain,1.8650000000000002,1.8845,,0.999,1.799,,45.9063116041865,5.1903572443838,2
01800 Saint-Maurice-de-Gourdans,Auvergne-Rhône-Alpes,Ain,1.99,,1.99,,,,45.821,5.2,1
01960 Péronnas,Auvergne-Rhône-Alpes,Ain,1.8639999999999999,1.919,1.819,0.989,1.869,0.999,46.1865,5.2125,2
01960 Servas,Auvergne-Rhône-Alpes,Ain,1.829,1.869,,0.998,1.789,,46.128,5.163,1
02000 Chambry,Hauts-de-France,Aisne,1.785,1.809,,0.951,1.764,0.995,49.587,3.649,1
02000 Laon,Hauts-de-France,Aisne,1.869142857142857,1.9231666666666667,1.888,1.021,1.8478,,49.56775086731357,3.633734739515043,7
02100 Fayet,Hauts-de-France,Aisne,1.851,1.903,,0.948,1.825,0.956,49.858,3.253,1
02100 Harly,Hauts-de-France,Aisne,1.803,1.869,,0.957,1.788,0.956,49.84272807,3.32345007,1
02100 Neuville-Saint-Amand,Hauts-de-France,Aisne,1.803,1.869,,0.957,1.788,,49.824379060000005,3.3107543699999997,1
02100 Saint-Quentin,Hauts-de-France,Aisne,1.8575,1.9204,1.859,1.0583333333333333,1.8565999999999998,0.976,49.845939250324996,3.2871049632725,8
02110 Bohain-en-Vermandois,Hauts-de-France,Aisne,1.86,1.91,,0.998,1.845,,49.9819591,3.4521857999999996,2
02120 Guise,Hauts-de-France,Aisne,1.8916666666666666,1.9466666666666665,1.878,1.169,1.875,0.999,49.90055,3.631133333333333,3
02130 Fère-en-Tardenois,Hauts-de-France,Aisne,1.874,1.999,1.909,0.989,,,49.198499999999996,3.5125,2
02130 Étrépilly,Hauts-de-France,Aisne,2.059,2.149,,,2.049,1.083,49.07771,3.37046,2
02140 Fontaine-lès-Vervins,Hauts-de-France,Aisne,1.93,,,,1.928,,49.843,3.905,1
02140 Vervins,Hauts-de-France,Aisne,1.9394999999999998,1.8965,1.887,0.998,1.851,,49.837063894078,3.9132089720010503,2
02170 Le Nouvion-en-Thiérache,Hauts-de-France,Aisne,1.909,1.939,1.919,,,,50.013,3.781,1
02190 Villeneuve-sur-Aisne,Hauts-de-France,Aisne,1.9423333333333332,1.9956666666666667,1.899,1.329,1.944,1.083,49.442946915074664,3.940344543926533,3
02200 Soissons,Hauts-de-France,Aisne,1.8707142857142858,1.9424285714285714,1.896,0.9949999999999999,1.8653333333333333,1.004,49.37538142857142,3.322567142857143,7
02200 Vauxbuin,Hauts-de-France,Aisne,1.887,1.973,,,1.893,,49.364,3.304,1
02200 Venizel,Hauts-de-France,Aisne,1.88,1.909,1.889,,,,49.36299,3.40346,1
02220 Braine,Hauts-de-France,Aisne,1.879,1.969,,1.049,1.879,,49.341,3.529,1
02230 Fresnoy-le-Grand,Hauts-de-France,Aisne,1.85,1.895,1.88,,,,49.957514,3.4304281,1
02240 Ribemont,Hauts-de-France,Aisne,1.819,,,0.998,1.789,,49.80095,3.46696,1
02250 Marle,Hauts-de-France,Aisne,1.9215,1.99,1.939,1.069,1.925,,49.74642,3.772685,2
02260 La Capelle,Hauts-de-France,Aisne,1.899,1.929,1.899,,,,49.973,3.918,1
02270 Crécy-sur-Serre,Hauts-de-France,Aisne,1.979,1.999,,1.069,1.969,,49.689,3.622,1
02290 Ressons-le-Long,Hauts-de-France,Aisne,1.844,1.91,,0.998,1.827,,49.396807142795,3.1156294899994,1
02300 Autreville,Hauts-de-France,Aisne,1.859,1.924,1.9,,,,49.591,3.234,1
02300 Blérancourt,Hauts-de-France,Aisne,1.892,1.958,1.932,,1.989,,49.5197529,3.1492908,1
02300 Chauny,Hauts-de-France,Aisne,1.859,1.899,,0.999,1.829,,49.62645,3.21575,1
02300 Viry-Noureuil,Hauts-de-France,Aisne,1.859,1.889,,,1.819,0.959,49.64287,3.2595,1
02310 Charly-sur-Marne,Hauts-de-France,Aisne,1.794,1.866,1.829,0.966,,,48.97646,3.28015,1
02320 Anizy-le-Grand,Hauts-de-France,Aisne,1.849,1.885,1.855,,1.815,,49.506,3.44,1
02340 Dizy-le-Gros,Hauts-de-France,Aisne,1.889,,,,1.919,,49.63,4.025,1
02340 Lislet,Hauts-de-France,Aisne,1.849,1.849,1.859,,,,49.689,4.022,1
02360 Rozoy-sur-Serre,Hauts-de-France,Aisne,1.849,1.889,,0.998,1.819,,49.704,4.112,1
02370 Vailly-sur-Aisne,Hauts-de-France,Aisne,1.869,1.919,1.899,,,,49.405636006255996,3.5149754981475,1
02380 Crécy-au-Mont,Hauts-de-France,Aisne,1.835,1.913,,0.994,1.832,,49.489,3.336,1
02390 Origny-Sainte-Benoite,Hauts-de-France,Aisne,1.959,1.969,1.929,,,,49.83722,3.49412,1
02400 Château-Thierry,Hauts-de-France,Aisne,1.8585,1.959666666666667,1.8599999999999999,0.949,1.86225,,49.04387395949925,3.392836525713775,4
02420 Bellicourt,Hauts-de-France,Aisne,1.99,,1.99,,,,49.96029,3.2316,1
02430 Gauchy,Hauts-de-France,Aisne,1.824,1.855,,0.998,1.791,0.974,49.82606,3.2792,1
02450 La Neuville-lès-Dorengt,Hauts-de-France,Aisne,1.863,1.916,1.895,,,,49.9772968,3.6768151000000002,1
02460 La Ferté-Milon,Hauts-de-France,Aisne,1.889,1.989,1.949,1.099,,,49.185303407714,3.1230893867999496,2
02470 Neuilly-Saint-Front,Hauts-de-France,Aisne,1.784,1.809,,,1.764,,49.169,3.257,1
02480 Jussy,Hauts-de-France,Aisne,1.913,1.957,,1.069,1.901,,49.73353618049801,3.2450595752320996,1
02500 Hirson,Hauts-de-France,Aisne,1.828,1.8763333333333332,,,1.8099999999999998,0.959,49.916058060614,4.083693475099399,3
02580 Étréaupont,Hauts-de-France,Aisne,1.929,,,,1.899,,49.9035443,3.9139988,1
02600 Villers-Cotterêts,Hauts-de-France,Aisne,1.9045,2.017333333333333,1.9165,1.13,1.849,,49.250737022420005,3.07941965762666,5
02620 Buironfosse,Hauts-de-France,Aisne,1.929,,,,1.899,,49.960603600000006,3.8238007,1
02690 Essigny-le-Grand,Hauts-de-France,Aisne,1.989,1.99,,1.249,1.959,1.054,49.77752,3.27799,1
02700 Condren,Hauts-de-France,Aisne,1.958,1.99,,,1.925,,49.65,3.28,1
02800 Beautor,Hauts-de-France,Aisne,1.831,1.834,,0.953,1.786,,49.66,3.346,1
02800 La Fère,Hauts-de-France,Aisne,1.899,1.969,1.949,,,,49.66023,3.37185,1
02820 Saint-Erme-Outre-et-Ramecourt,Hauts-de-France,Aisne,1.829,1.867,,0.999,1.799,,49.531,3.856,1
02860 Bruyères-et-Montbérault,Hauts-de-France,Aisne,1.942,1.99,,,1.93,,49.532,3.653,1
02870 Crépy,Hauts-de-France,Aisne,1.889,,,,1.899,,49.609284191712995,3.5052696871806,1
02880 Crouy,Hauts-de-France,Aisne,,,,,,,49.39825,3.35632,1
03000 Avermes,Auvergne-Rhône-Alpes,Allier,1.8283333333333331,1.9245,1.809,0.989,1.8439999999999999,1.049,46.59357233137134,3.3138569048047,3
03000 Moulins,Auvergne-Rhône-Alpes,Allier,1.849,1.873,1.849,0.999,1.8005,,46.5515,3.332,2
03100 Montluçon,Auvergne-Rhône-Alpes,Allier,1.8594285714285714,1.907142857142857,1.8445,0.996,1.8643999999999998,,46.337874594247005,2.5934346198211284,7
03110 Broût-Vernet,Auvergne-Rhône-Alpes,Allier,1.937,1.98,,,1.928,,46.192,3.265,1
03110 Charmeil,Auvergne-Rhône-Alpes,Allier,1.937,,,,1.919,,46.155,3.394,1
03120 Lapalisse,Auvergne-Rhône-Alpes,Allier,1.8656,1.9092500000000001,1.8900000000000001,1.0485,1.811,,46.2493138879306,3.6242804546044,5
03130 Le Donjon,Auvergne-Rhône-Alpes,Allier,1.99,1.98,1.96,,,,46.34868,3.79313,1
03150 Varennes-sur-Allier,Auvergne-Rhône-Alpes,Allier,1.915,2.00175,1.9975,,1.874,,46.321,3.394,4
03160 Bourbon-l'Archambault,Auvergne-Rhône-Alpes,Allier,1.915,1.985,1.891,,,,46.58333,3.06336,1
03170 Doyet,Auvergne-Rhône-Alpes,Allier,2.039,2.119,,,2.019,1.083,46.345505,2.79859,2
03190 Vallon-en-Sully,Auvergne-Rhône-Alpes,Allier,1.889,1.939,1.889,,,,46.531,2.622,1
03200 Vichy,Auvergne-Rhône-Alpes,Allier,1.9143333333333334,1.9596666666666664,,,1.8856666666666666,0.969,46.130046666666665,3.4288966666666667,3
03210 Souvigny,Auvergne-Rhône-Alpes,Allier,1.901,,1.906,,1.861,,46.536,3.203,1
03240 Deux-Chaises,Auvergne-Rhône-Alpes,Allier,1.937,1.99,,,1.919,,46.38,3.04,1
03250 Le Mayet-de-Montagne,Auvergne-Rhône-Alpes,Allier,1.776,1.814,,,1.738,,46.06849,3.66341,1
03260 Saint-Germain-des-Fossés,Auvergne-Rhône-Alpes,Allier,1.829,,,0.998,1.799,,46.205,3.432,1
03270 Saint-Yorre,Auvergne-Rhône-Alpes,Allier,1.889,1.929,1.889,,,,46.0545608,3.4701495400000004,1
03290 Dompierre-sur-Besbre,Auvergne-Rhône-Alpes,Allier,1.9176666666666666,1.953,1.9100000000000001,,,,46.523,3.6803333333333335,3
03300 Cusset,Auvergne-Rhône-Alpes,Allier,1.8860000000000001,1.9503333333333333,1.8744999999999998,0.994,1.919,,46.13614548333334,3.45088925,3
03310 Néris-les-Bains,Auvergne-Rhône-Alpes,Allier,1.895,1.919,1.891,,1.963,,46.283,2.669,1
03320 Lurcy-Lévis,Auvergne-Rhône-Alpes,Allier,1.949,1.999,1.979,,,,46.731,2.938,1
03350 Cérilly,Auvergne-Rhône-Alpes,Allier,1.919,,1.889,,,,46.61658854,2.82206505,1
03360 Ainay-le-Château,Auvergne-Rhône-Alpes,Allier,1.854,,1.878,,1.84,,46.705,2.695,1
03380 Domérat,Auvergne-Rhône-Alpes,Allier,1.947,1.99,,,1.919,,46.406002810000004,2.52902817,1
03380 Huriel,Auvergne-Rhône-Alpes,Allier,1.899,1.919,1.869,,,,46.372,2.471,1
03390 Montmarault,Auvergne-Rhône-Alpes,Allier,1.8940000000000001,1.959,1.869,1.259,1.921,,46.3225,2.9625,2
03400 Moulins,Auvergne-Rhône-Alpes,Allier,1.907,1.99,,0.994,1.919,0.986,46.558,3.335,1
03400 Toulon-sur-Allier,Auvergne-Rhône-Alpes,Allier,2.0445,2.079,,1.097,1.943,,46.5016935,3.361861,2
03400 Yzeure,Auvergne-Rhône-Alpes,Allier,1.904,1.974,1.919,,,,46.56484695,3.35485610742305,2
03410 Domérat,Auvergne-Rhône-Alpes,Allier,1.861,1.9253333333333333,1.8725,,1.8579999999999999,0.959,46.35567,2.55442,3
03410 Prémilhat,Auvergne-Rhône-Alpes,Allier,1.86,1.925,1.869,,1.812,0.959,46.338,2.567,1
03410 Saint-Victor,Auvergne-Rhône-Alpes,Allier,1.873,1.997,1.9060000000000001,1.015,1.795,,46.3831688855525,2.5992004427535003,2
03430 Cosne-d'Allier,Auvergne-Rhône-Alpes,Allier,1.887,1.92,1.872,,,,46.474,2.827,1
03450 Ébreuil,Auvergne-Rhône-Alpes,Allier,1.969,1.985,,,1.928,,46.119,3.094,1
03500 Saint-Pourçain-sur-Sioule,Auvergne-Rhône-Alpes,Allier,1.865,1.936,1.865,0.989,1.8536666666666666,0.986,46.301516404999994,3.2909058150000003,4
03500 Saulcet,Auvergne-Rhône-Alpes,Allier,2.045,2.199,2.156,,,,46.338,3.285,1
03600 Commentry,Auvergne-Rhône-Alpes,Allier,1.885,1.9293333333333333,1.869,0.996,1.874,,46.29150333333333,2.7416400000000003,3
03630 Désertines,Auvergne-Rhône-Alpes,Allier,1.8545,1.899,1.879,,1.813,,46.349999999999994,2.62,2
03700 Bellerive-sur-Allier,Auvergne-Rhône-Alpes,Allier,1.8565,1.9155,,0.975,1.8359999999999999,,46.1158159412,3.4149123843550004,2
03800 Gannat,Auvergne-Rhône-Alpes,Allier,1.9060000000000001,1.9335,1.86,0.996,1.87675,1.056,46.0943619509316,3.20289229684908,5
04000 Digne-les-Bains,Provence-Alpes-Côte d'Azur,Alpes-de-Haute-Provence,1.8686666666666667,1.9,1.887,0.965,1.8393333333333333,0.997,44.08453333333333,6.2158266666666675,3
04100 Manosque,Provence-Alpes-Côte d'Azur,Alpes-de-Haute-Provence,1.8408333333333333,1.877,1.839,1.03525,1.809,0.8816666666666667,43.83087247983643,5.7957954339753,7
04120 Castellane,Provence-Alpes-Côte d'Azur,Alpes-de-Haute-Provence,1.979,1.956,,,1.892,,43.84903,6.5100999999999996,2
04120 La Palud-sur-Verdon,Provence-Alpes-Côte d'Azur,Alpes-de-Haute-Provence,1.913,,1.989,,,,43.78,6.342,1
04130 La Brillanne,Provence-Alpes-Côte d'Azur,Alpes-de-Haute-Provence,1.99,,,,1.99,,43.94225,5.89247,1
04130 Volx,Provence-Alpes-Côte d'Azur,Alpes-de-Haute-Provence,1.99,,,1.249,1.99,,43.842885752117,5.851421022464799,1
04140 Seyne,Provence-Alpes-Côte d'Azur,Alpes-de-Haute-Provence,1.849,1.879,,,1.448,,44.34,6.379,1
04160 Château-Arnoux-Saint-Auban,Provence-Alpes-Côte d'Azur,Alpes-de-Haute-Provence,1.936,1.957,1.889,1.0114999999999998,1.8986666666666665,0.999,44.086,6.00375,4
04170 Saint-André-les-Alpes,Provence-Alpes-Côte d'Azur,Alpes-de-Haute-Provence,1.9675,1.99,1.99,,1.899,,43.965885,6.5067699999999995,2
04190 Les Mées,Provence-Alpes-Côte d'Azur,Alpes-de-Haute-Provence,1.899,1.919,,0.999,1.839,,44.032,5.972,1
04200 Aubignosc,Provence-Alpes-Côte d'Azur,Alpes-de-Haute-Provence,2.024,2.114,,,2.014,1.083,44.133508652902,5.9775342421699005,1
04200 Peipin,Provence-Alpes-Côte d'Azur,Alpes-de-Haute-Provence,1.829,1.869,,0.998,1.799,,44.14295,5.95926,1
04200 Sisteron,Provence-Alpes-Côte d'Azur,Alpes-de-Haute-Provence,1.8725,1.9235,,0.994,1.8399999999999999,,44.192499999999995,5.945,2
04204 Sisteron,Provence-Alpes-Côte d'Azur,Alpes-de-Haute-Provence,1.818,1.869,1.849,0.999,1.778,0.999,44.21258330405,5.93039879889,2
04210 Valensole,Provence-Alpes-Côte d'Azur,Alpes-de-Haute-Provence,1.904,1.92,2.019,,1.82,,43.83578690666667,5.9800358266666676,3
04240 Annot,Provence-Alpes-Côte d'Azur,Alpes-de-Haute-Provence,1.89,,1.799,,,,43.969,6.668,1
04260 Allos,Provence-Alpes-Côte d'Azur,Alpes-de-Haute-Provence,2.02,2.13,2.03,,,,44.26338,6.64132,1
04280 Céreste,Provence-Alpes-Côte d'Azur,Alpes-de-Haute-Provence,1.793,1.901,,,1.814,,43.858,5.597,1
04300 Forcalquier,Provence-Alpes-Côte d'Azur,Alpes-de-Haute-Provence,1.899,1.929,,0.998,1.859,,43.954585,5.781645,2
04320 Entrevaux,Provence-Alpes-Côte d'Azur,Alpes-de-Haute-Provence,1.879,1.912,,0.998,1.834,,43.957,6.798,2
04330 Barrême,Provence-Alpes-Côte d'Azur,Alpes-de-Haute-Provence,1.929,1.939,,1.199,1.885,,43.952,6.366,1
04360 Moustiers-Sainte-Marie,Provence-Alpes-Côte d'Azur,Alpes-de-Haute-Provence,1.97,1.99,1.97,,,,43.844,6.215,1
04370 Villars-Colmars,Provence-Alpes-Côte d'Azur,Alpes-de-Haute-Provence,1.98,,1.99,,,,44.1629,6.60861,1
04400 Barcelonnette,Provence-Alpes-Côte d'Azur,Alpes-de-Haute-Provence,1.9396666666666667,1.9896666666666667,1.946,,1.9045,,44.387233873033345,6.655075539676666,3
04400 Saint-Pons,Provence-Alpes-Côte d'Azur,Alpes-de-Haute-Provence,1.949,1.989,1.937,1.169,1.897,1.069,44.387,6.629,1
04500 Riez,Provence-Alpes-Côte d'Azur,Alpes-de-Haute-Provence,1.9355,1.886,2.09,1.25,1.819,,43.81754304903333,6.089455649523333,3
04510 Mallemoisson,Provence-Alpes-Côte d'Azur,Alpes-de-Haute-Provence,1.948,1.998,1.958,,,,44.044,6.13,1
04700 La Brillanne,Provence-Alpes-Côte d'Azur,Alpes-de-Haute-Provence,1.889,1.899,1.859,1.099,2.039,,43.92768,5.89091,1
04700 Oraison,Provence-Alpes-Côte d'Azur,Alpes-de-Haute-Provence,1.881,1.9110000000000003,,1.059,1.8310000000000002,,43.92005180207775,5.913068117520949,4
04800 Gréoux-les-Bains,Provence-Alpes-Côte d'Azur,Alpes-de-Haute-Provence,1.973,1.99,,,1.92,,43.756,5.887,1
05000 Gap,Provence-Alpes-Côte d'Azur,Hautes-Alpes,1.8537142857142856,1.8964285714285716,,1.014,1.8092857142857142,1.034,44.55486285714286,6.076935714285715,7
05100 Briançon,Provence-Alpes-Côte d'Azur,Hautes-Alpes,1.868,1.911,1.915,1.059,,1.004,44.901359164297,6.631542928904301,2
05100 Montgenèvre,Provence-Alpes-Côte d'Azur,Hautes-Alpes,1.86,1.91,,1.058,1.82,,44.934,6.733,1
05120 L'Argentière-la-Bessée,Provence-Alpes-Côte d'Azur,Hautes-Alpes,1.899,,1.879,,1.839,,44.7929320359,6.55974685925,1
05120 Saint-Martin-de-Queyrières,Provence-Alpes-Côte d'Azur,Hautes-Alpes,1.86,,1.915,,1.82,,44.853,6.582,1
05130 Tallard,Provence-Alpes-Côte d'Azur,Hautes-Alpes,1.874,1.8785,,0.999,1.8135,,44.458626545342334,6.045046402119933,3
05160 Savines-le-Lac,Provence-Alpes-Côte d'Azur,Hautes-Alpes,1.832,1.879,,,1.801,,44.525,6.408,1
05190 Remollon,Provence-Alpes-Côte d'Azur,Hautes-Alpes,1.859,1.879,,0.999,1.799,0.999,44.4675,6.179,2
05200 Baratier,Provence-Alpes-Côte d'Azur,Hautes-Alpes,1.8675,1.9295,,0.998,1.8485,1.19,44.5407879,6.490012,3
05200 Embrun,Provence-Alpes-Côte d'Azur,Hautes-Alpes,1.8845,1.9165,1.8940000000000001,0.998,1.801,,44.5555,6.4879999999999995,2
05220 Le Monêtier-les-Bains,Provence-Alpes-Côte d'Azur,Hautes-Alpes,1.86,,1.915,,1.82,,44.972,6.519,1
05230 Chorges,Provence-Alpes-Côte d'Azur,Hautes-Alpes,1.8243333333333334,1.87,,0.9964999999999999,1.8063333333333331,,44.550406459702664,6.260216945301,3
05230 La Bâtie-Neuve,Provence-Alpes-Côte d'Azur,Hautes-Alpes,1.81,,1.99,,,,44.567,6.195,1
05240 La Salle-les-Alpes,Provence-Alpes-Côte d'Azur,Hautes-Alpes,1.895,1.995,1.945,,,,44.942,6.569,1
05260 Chabottes,Provence-Alpes-Côte d'Azur,Hautes-Alpes,1.949,1.99,,,1.929,,44.64668,6.18157,1
05260 Forest-Saint-Julien,Provence-Alpes-Côte d'Azur,Hautes-Alpes,1.89,1.97,1.95,,,,44.643941,6.136964,1
05300 Garde-Colombe,Provence-Alpes-Côte d'Azur,Hautes-Alpes,,,,,,,44.34606,5.77102,1
05300 Laragne-Montéglin,Provence-Alpes-Côte d'Azur,Hautes-Alpes,1.8893333333333333,1.9344999999999999,,1.029,1.86,,44.31133333333333,5.8293333333333335,3
05350 Château-Ville-Vieille,Provence-Alpes-Côte d'Azur,Hautes-Alpes,2.03,2.11,2.09,,,,44.7591968,6.807749599999999,1
05400 Veynes,Provence-Alpes-Côte d'Azur,Hautes-Alpes,1.8723333333333334,1.919,1.8639999999999999,1.009,1.829,,44.536889433333336,5.833787,3
05500 La Fare-en-Champsaur,Provence-Alpes-Côte d'Azur,Hautes-Alpes,1.869,,1.879,,1.809,,44.672983511300004,6.0736685408,1
05500 Saint-Bonnet-en-Champsaur,Provence-Alpes-Côte d'Azur,Hautes-Alpes,1.859,,1.879,,,,44.675773217151,6.075892485075101,1
05560 Vars,Provence-Alpes-Côte d'Azur,Hautes-Alpes,1.99,2.129,2.049,,,,44.6075,6.6884999999999994,2
05600 Eygliers,Provence-Alpes-Côte d'Azur,Hautes-Alpes,1.899,1.909,1.879,,1.839,,44.672,6.618,1
05600 Guillestre,Provence-Alpes-Côte d'Azur,Hautes-Alpes,1.873,1.8780000000000001,1.8525,,1.797,,44.658485,6.63623,2
05600 Saint-Clément-sur-Durance,Provence-Alpes-Côte d'Azur,Hautes-Alpes,,,,,,,44.651756108158,6.5873162517587005,1
05700 Serres,Provence-Alpes-Côte d'Azur,Hautes-Alpes,1.917,1.985,1.927,,1.869,,44.4313479894,5.714927967045,2
06000 Nice,Provence-Alpes-Côte d'Azur,Alpes-Maritimes,1.9551666666666667,2.008,,1.229,1.9161666666666666,,43.713475949999996,7.262787866666667,6
06100 Nice,Provence-Alpes-Côte d'Azur,Alpes-Maritimes,1.899,2.049,,,1.949,,43.72385,7.25579,1
06110 Le Cannet,Provence-Alpes-Côte d'Azur,Alpes-Maritimes,1.8572,1.91475,1.799,1.124,1.8207999999999998,,43.57015560638,6.99834225113,5
06110 Mougins,Provence-Alpes-Côte d'Azur,Alpes-Maritimes,1.945,1.978,,1.143,1.923,,43.581,7.007,1
06130 Grasse,Provence-Alpes-Côte d'Azur,Alpes-Maritimes,1.905,1.9471428571428573,,0.9908333333333332,1.8601428571428573,,43.643569101938716,6.941853942879057,7
06140 Vence,Provence-Alpes-Côte d'Azur,Alpes-Maritimes,1.937,1.9645000000000001,,,1.9060000000000001,0.994,43.720105689962,7.10668306332245,2
06150 Cannes,Provence-Alpes-Côte d'Azur,Alpes-Maritimes,1.8475000000000001,1.905166666666667,,1.00575,1.8233333333333333,0.999,43.55678896732851,6.969297199369467,6
06160 Antibes,Provence-Alpes-Côte d'Azur,Alpes-Maritimes,1.8940000000000001,1.969,,1.129,1.834,,43.5758768310065,7.1063258779488,2
06190 Roquebrune-Cap-Martin,Provence-Alpes-Côte d'Azur,Alpes-Maritimes,1.9590000000000003,2.015,,1.0615,1.925,,43.763429474070996,7.4727548925943665,3
06200 Nice,Provence-Alpes-Côte d'Azur,Alpes-Maritimes,1.8728181818181817,1.9266666666666667,1.853,1.1326666666666667,1.8369,0.95825,43.69305950316773,7.211539257322662,11
06210 Mandelieu-la-Napoule,Provence-Alpes-Côte d'Azur,Alpes-Maritimes,1.8780000000000001,1.9375,,1.049,1.843,0.979,43.5279,6.91653,2
06220 Vallauris,Provence-Alpes-Côte d'Azur,Alpes-Maritimes,1.8549999999999998,1.9043333333333334,,0.9835,1.8283333333333331,,43.580893333333336,7.05528,3
06230 Nice,Provence-Alpes-Côte d'Azur,Alpes-Maritimes,1.869,1.949,,,1.869,,43.706,7.301,1
06230 Villefranche-sur-Mer,Provence-Alpes-Côte d'Azur,Alpes-Maritimes,1.955,1.99,,,1.933,,43.70556,7.32039,1
06240 Beausoleil,Provence-Alpes-Côte d'Azur,Alpes-Maritimes,1.9745,1.9945,1.949,,1.961,1.031,43.747384053748,7.424808390490799,2
06250 Le Cannet,Provence-Alpes-Côte d'Azur,Alpes-Maritimes,1.989,1.99,,1.249,1.964,1.054,43.584,7.025,1
06250 Mougins,Provence-Alpes-Côte d'Azur,Alpes-Maritimes,1.90975,1.9885,,1.109,1.8895,,43.5911992104335,7.004161007724875,4
06260 Puget-Théniers,Provence-Alpes-Côte d'Azur,Alpes-Maritimes,1.858,1.8944999999999999,1.789,,1.909,,43.9553725697315,6.892155509395,2
06270 Villeneuve-Loubet,Provence-Alpes-Côte d'Azur,Alpes-Maritimes,1.8295,1.854,,,1.7995,0.949,43.634450382088,7.136299545241201,2
06300 Nice,Provence-Alpes-Côte d'Azur,Alpes-Maritimes,1.9186,1.9606000000000001,1.99,,1.9196666666666669,1.034,43.711333333333336,7.290666666666667,6
06310 Beaulieu-sur-Mer,Provence-Alpes-Côte d'Azur,Alpes-Maritimes,1.955,1.99,,,1.933,,43.70743,7.33406,1
06320 Cap-d'Ail,Provence-Alpes-Côte d'Azur,Alpes-Maritimes,1.957,1.99,,,1.93,,43.72306286293401,7.3977043091927,1
06320 La Turbie,Provence-Alpes-Côte d'Azur,Alpes-Maritimes,2.013,2.0309999999999997,1.973,,1.9745,1.031,43.75,7.395,2
06330 Roquefort-les-Pins,Provence-Alpes-Côte d'Azur,Alpes-Maritimes,1.8895,1.9655,,0.994,1.8665,,43.667500000000004,7.047000000000001,2
06340 Cantaron,Provence-Alpes-Côte d'Azur,Alpes-Maritimes,1.895,1.92,1.89,,,,43.77513,7.3353,1
06340 Drap,Provence-Alpes-Côte d'Azur,Alpes-Maritimes,1.99,1.99,1.99,,,,43.757,7.32,1
06345 La Trinité,Provence-Alpes-Côte d'Azur,Alpes-Maritimes,1.838,1.873,,0.999,1.799,,43.743310338554004,7.3213261846714,1
06360 Èze,Provence-Alpes-Côte d'Azur,Alpes-Maritimes,2.09,2.09,,,2.09,,43.729035301218,7.3670632474161994,1
06370 Mouans-Sartoux,Provence-Alpes-Côte d'Azur,Alpes-Maritimes,1.788,1.827,,,1.758,,43.613900932099995,6.9764664324,1
06400 Cannes,Provence-Alpes-Côte d'Azur,Alpes-Maritimes,1.94,1.9846,1.99,0.994,1.88725,,43.552115188565395,7.02462582895662,5
06410 Biot,Provence-Alpes-Côte d'Azur,Alpes-Maritimes,1.979,2.019,1.989,,,,43.62474,7.10244,1
06420 Isola,Provence-Alpes-Côte d'Azur,Alpes-Maritimes,2.078,2.076,2.062,,,,44.184,7.056,1
06430 Tende,Provence-Alpes-Côte d'Azur,Alpes-Maritimes,1.986,,1.963,,,,44.087683067888,7.5937221262687,1
06450 La Bollène-Vésubie,Provence-Alpes-Côte d'Azur,Alpes-Maritimes,1.979,1.999,1.969,,1.959,,43.993,7.319,1
06460 Saint-Vallier-de-Thiey,Provence-Alpes-Côte d'Azur,Alpes-Maritimes,1.905,1.899,,0.995,1.83,,43.698,6.841,1
06480 La Colle-sur-Loup,Provence-Alpes-Côte d'Azur,Alpes-Maritimes,1.758,1.79,1.77,,1.741,,43.674,7.123,1
06500 Menton,Provence-Alpes-Côte d'Azur,Alpes-Maritimes,1.97275,2.01825,1.9703333333333335,1.0316666666666665,1.943,,43.783761399999996,7.494281075,4
06510 Carros,Provence-Alpes-Côte d'Azur,Alpes-Maritimes,1.99,,,,,,43.776,7.199,1
06510 Gattières,Provence-Alpes-Côte d'Azur,Alpes-Maritimes,1.849,1.889,,,1.82,,43.764,7.2,1
06520 Grasse,Provence-Alpes-Côte d'Azur,Alpes-Maritimes,1.889,1.939,,,1.859,,43.681,6.969,1
06530 Le Tignet,Provence-Alpes-Côte d'Azur,Alpes-Maritimes,1.839,,1.859,,,,43.634449000000004,6.853901,1
06530 Peymeinade,Provence-Alpes-Côte d'Azur,Alpes-Maritimes,1.8965,1.9545,,,1.88,,43.64432,6.88398,2
06530 Saint-Cézaire-sur-Siagne,Provence-Alpes-Côte d'Azur,Alpes-Maritimes,1.965,1.998,1.989,,,,43.650138552655,6.810616369366,1
06540 Breil-sur-Roya,Provence-Alpes-Côte d'Azur,Alpes-Maritimes,2.09,2.196,,,2.147,,43.964,7.524,1
06550 La Roquette-sur-Siagne,Provence-Alpes-Côte d'Azur,Alpes-Maritimes,1.8615,1.8835000000000002,1.939,0.998,1.81,,43.576,6.951499999999999,2
06560 Valbonne,Provence-Alpes-Côte d'Azur,Alpes-Maritimes,1.8855,1.9285,1.836,0.994,1.9,,43.635993,7.023805,2
06580 Pégomas,Provence-Alpes-Côte d'Azur,Alpes-Maritimes,1.869,1.859,1.835,0.995,1.8,,43.5922,6.92965,1
06600 Antibes,Provence-Alpes-Côte d'Azur,Alpes-Maritimes,1.9064,1.9471111111111112,1.8860000000000001,1.1315,1.8685555555555555,0.985,43.59396160476,7.108451595196,10
06610 La Gaude,Provence-Alpes-Côte d'Azur,Alpes-Maritimes,1.9465,1.9865,1.932,1.132,1.899,,43.7249829061515,7.15747247735915,2
06640 Saint-Jeannet,Provence-Alpes-Côte d'Azur,Alpes-Maritimes,1.998,2.095,,,1.999,,43.74525,7.14362,1
06650 Le Rouret,Provence-Alpes-Côte d'Azur,Alpes-Maritimes,1.919,1.909,,,1.829,,43.6729033299,6.99413645217,1
06650 Opio,Provence-Alpes-Côte d'Azur,Alpes-Maritimes,2.075,2.19,2.09,1.19,2.18,,43.663070000000005,6.99039,2
06660 Saint-Étienne-de-Tinée,Provence-Alpes-Côte d'Azur,Alpes-Maritimes,1.99,1.99,1.99,,,,44.233,6.952,1
06670 Colomars,Provence-Alpes-Côte d'Azur,Alpes-Maritimes,1.809,1.899,,,1.799,,43.762,7.203,1
06670 Levens,Provence-Alpes-Côte d'Azur,Alpes-Maritimes,2.0195,2.106,2.085,,,,43.8557467272315,7.21216640555715,2
06670 Nice,Provence-Alpes-Côte d'Azur,Alpes-Maritimes,1.809,1.909,,,1.793,,43.76,7.2,1
06700 Saint-Laurent-du-Var,Provence-Alpes-Côte d'Azur,Alpes-Maritimes,1.9558,2.0096,2.06,1.119,1.9408,0.999,43.6674009236632,7.18719493106836,5
06750 Séranon,Provence-Alpes-Côte d'Azur,Alpes-Maritimes,1.9,1.91,,,1.87,,43.764,6.656,1
06770 Carros,Provence-Alpes-Côte d'Azur,Alpes-Maritimes,1.809,1.909,,1.079,1.793,,43.7666750087,7.20105991068,1
06800 Cagnes-sur-Mer,Provence-Alpes-Côte d'Azur,Alpes-Maritimes,1.9105,1.97725,,1.0723333333333331,1.9027142857142856,1.089,43.6602626625,7.1524033750000005,8
07000 Privas,Auvergne-Rhône-Alpes,Ardèche,1.889,1.899,,0.998,1.849,,44.727,4.597,1
07000 Veyras,Auvergne-Rhône-Alpes,Ardèche,1.999,,2.059,,2.029,,44.729,4.569,1
07100 Annonay,Auvergne-Rhône-Alpes,Ardèche,1.893,1.9395,1.888,1.0765,1.779,,45.244249999999994,4.67575,4
07110 Largentière,Auvergne-Rhône-Alpes,Ardèche,1.819,1.879,1.859,,,,44.54143,4.29344,1
07110 Vinezac,Auvergne-Rhône-Alpes,Ardèche,1.869,1.899,1.889,,,,44.537440644271,4.3466584682127,1
07120 Grospierres,Auvergne-Rhône-Alpes,Ardèche,1.99,,1.99,,,,44.41,4.294,1
07120 Pradons,Auvergne-Rhône-Alpes,Ardèche,1.974,1.99,,,1.947,,44.472,4.356,1
07120 Ruoms,Auvergne-Rhône-Alpes,Ardèche,1.846,1.867,1.831,0.978,1.801,1.02,44.4434055985,4.348132517390001,1
07130 Cornas,Auvergne-Rhône-Alpes,Ardèche,1.917,1.99,1.949,,,,44.958,4.847,1
07130 Saint-Péray,Auvergne-Rhône-Alpes,Ardèche,1.899,1.939,,,1.879,1.019,44.944,4.857,1
07130 Soyons,Auvergne-Rhône-Alpes,Ardèche,1.828,1.866,,0.998,1.794,,44.919774904095995,4.8614537844062005,1
07140 Les Vans,Auvergne-Rhône-Alpes,Ardèche,1.879,1.909,1.874,1.079,,,44.406,4.1335,2
07150 Salavas,Auvergne-Rhône-Alpes,Ardèche,1.96,,1.97,,,,44.397,4.382,1
07150 Vallon-Pont-d'Arc,Auvergne-Rhône-Alpes,Ardèche,1.871,1.899,1.873,,1.835,,44.407,4.394,1
07160 Le Cheylard,Auvergne-Rhône-Alpes,Ardèche,1.899,1.909,1.889,,1.839,,44.91283,4.44172,2
07170 Lavilledieu,Auvergne-Rhône-Alpes,Ardèche,1.879,1.929,1.909,1.139,1.859,0.989,44.57059,4.4591,1
07170 Villeneuve-de-Berg,Auvergne-Rhône-Alpes,Ardèche,1.842,1.8915,,0.999,1.827,,44.571315,4.51127,2
07190 Saint-Sauveur-de-Montagut,Auvergne-Rhône-Alpes,Ardèche,1.944,2.109,1.9740000000000002,,,,44.8203,4.588509999999999,2
07200 Aubenas,Auvergne-Rhône-Alpes,Ardèche,1.8485,1.88375,1.799,1.149,1.8150000000000002,1.019,44.61662320496449,4.395063670966025,4
07200 Saint-Didier-sous-Aubenas,Auvergne-Rhône-Alpes,Ardèche,1.879,,,1.179,1.839,,44.612,4.409,1
07200 Saint-Privat,Auvergne-Rhône-Alpes,Ardèche,1.99,1.99,,,,,44.6282697,4.4162453,1
07200 Saint-Étienne-de-Fontbellon,Auvergne-Rhône-Alpes,Ardèche,1.775,1.815,1.78,,1.737,0.916,44.599599809299995,4.38424813182,1
07200 Vesseaux,Auvergne-Rhône-Alpes,Ardèche,1.896,,1.905,,,,44.648,4.439,1
07200 Vogüé,Auvergne-Rhône-Alpes,Ardèche,1.9205,1.919,1.928,,,,44.544111799999996,4.41647873295455,2
07210 Alissas,Auvergne-Rhône-Alpes,Ardèche,1.849,1.879,1.849,0.999,1.809,,44.715,4.615,1
07220 Viviers,Auvergne-Rhône-Alpes,Ardèche,1.855,1.879,,1.069,1.825,,44.475896399999996,4.692095800000001,1
07230 Lablachère,Auvergne-Rhône-Alpes,Ardèche,1.859,,,0.999,1.815,,44.459,4.215,1
07240 Vernoux-en-Vivarais,Auvergne-Rhône-Alpes,Ardèche,1.899,,1.899,,,,44.89773,4.64767,1
07250 Le Pouzin,Auvergne-Rhône-Alpes,Ardèche,1.9335,1.92,1.9245,,,1.01,44.751045,4.75088,2
07260 Joyeuse,Auvergne-Rhône-Alpes,Ardèche,1.895,1.92,1.895,,,,44.479,4.248,1
07260 Rosières,Auvergne-Rhône-Alpes,Ardèche,1.859,1.879,,0.999,1.815,,44.483,4.267,1
07270 Lamastre,Auvergne-Rhône-Alpes,Ardèche,1.889,,1.869,,1.829,,44.982,4.569,1
07290 Lalouvesc,Auvergne-Rhône-Alpes,Ardèche,1.806,,1.8,,,,45.121,4.548,1
07300 Saint-Jean-de-Muzols,Auvergne-Rhône-Alpes,Ardèche,1.834,1.857,,0.998,1.789,,45.076,4.814,1
07300 Tournon-sur-Rhône,Auvergne-Rhône-Alpes,Ardèche,1.845,1.99,1.776,,1.816,,45.060016086675006,4.8325236698475,4
07330 Barnas,Auvergne-Rhône-Alpes,Ardèche,1.897,1.99,,,1.899,,44.66704,4.16313,1
07340 Félines,Auvergne-Rhône-Alpes,Ardèche,1.907,1.99,,,1.889,,45.309,4.742,1
07380 Lalevade-d'Ardèche,Auvergne-Rhône-Alpes,Ardèche,1.827,1.854,,0.998,1.784,,44.6498922918,4.32447950169,1
07380 Prades,Auvergne-Rhône-Alpes,Ardèche,1.959,1.99,1.99,,,,44.644662804300005,4.32898392299,1
07400 Le Teil,Auvergne-Rhône-Alpes,Ardèche,1.8319999999999999,1.859,,0.998,1.794,,44.547270902001,4.688982267458201,2
07400 Rochemaure,Auvergne-Rhône-Alpes,Ardèche,1.979,1.99,,,1.912,,44.6,4.717,1
07410 Saint-Félicien,Auvergne-Rhône-Alpes,Ardèche,1.869,1.879,1.849,,,,45.089944819115,4.6296841601189,1
07430 Davézieux,Auvergne-Rhône-Alpes,Ardèche,1.8367499999999999,1.8926666666666667,,0.952,1.8047499999999999,0.949,45.257415419656255,4.6980164649087,4
07470 Coucouron,Auvergne-Rhône-Alpes,Ardèche,1.869,,1.899,1.149,1.869,,44.801,3.972,1
07500 Guilherand-Granges,Auvergne-Rhône-Alpes,Ardèche,1.828,1.866,,0.924,1.771,,44.93828,4.86654,1
07580 Saint-Jean-le-Centenier,Auvergne-Rhône-Alpes,Ardèche,1.959,1.989,,,1.929,,44.584,4.532,1
07700 Bourg-Saint-Andéol,Auvergne-Rhône-Alpes,Ardèche,1.949,2.039,,0.998,1.959,,44.382,4.642,1
07700 Saint-Just-d'Ardèche,Auvergne-Rhône-Alpes,Ardèche,1.969,,1.899,,1.889,,44.305,4.612,1
07800 Charmes-sur-Rhône,Auvergne-Rhône-Alpes,Ardèche,1.917,1.99,,,1.899,,44.86331,4.83649,1
07800 La Voulte-sur-Rhône,Auvergne-Rhône-Alpes,Ardèche,1.822,1.8535,1.8295,,,,44.8085,4.7895,2
07800 Saint-Georges-les-Bains,Auvergne-Rhône-Alpes,Ardèche,1.854,1.879,,,1.799,,44.857,4.83,1
08000 Charleville-Mézières,Grand Est,Ardennes,1.9066666666666665,1.9656666666666667,,0.9979999999999999,1.8936666666666666,0.994,49.75613547682883,4.719551759815017,6
08000 Villers-Semeuse,Grand Est,Ardennes,1.886,1.959,,0.999,1.894,0.961,49.733,4.752,1
08090 Cliron,Grand Est,Ardennes,1.899,2.009,,,1.929,,49.805,4.621,1
08110 Blagny,Grand Est,Ardennes,1.868,1.879,1.859,,,,49.62,5.191,1
08110 Carignan,Grand Est,Ardennes,1.855,1.909,1.883,0.998,1.87,,49.637,5.162,1
08120 Bogny-sur-Meuse,Grand Est,Ardennes,1.879,1.899,,0.998,1.849,,49.857,4.764,1
08130 Attigny,Grand Est,Ardennes,1.9449999999999998,1.99,1.95,1.29,1.959,,49.48186,4.578810000000001,2
08140 Bazeilles,Grand Est,Ardennes,1.859,1.889,,,1.839,,49.684552690437,4.9723654981651,1
08150 Renwez,Grand Est,Ardennes,1.889,1.914,,,1.865,,49.84,4.605,1
08150 Rimogne,Grand Est,Ardennes,1.885,1.919,1.899,1.029,,,49.84,4.545,1
08170 Fumay,Grand Est,Ardennes,1.93,1.981,1.915,,1.941,,49.99314864106666,4.695223425316667,3
08190 Asfeld,Grand Est,Ardennes,1.8815,1.9445000000000001,1.889,,1.95,,49.46782,4.117705,2
08200 Sedan,Grand Est,Ardennes,1.85,1.905,,1.0053333333333334,1.8359999999999999,1.0015,49.700315,4.9275025,4
08210 Mouzon,Grand Est,Ardennes,1.979,2.062,2.003,,,,49.61023,5.07788,1
08230 Rocroi,Grand Est,Ardennes,1.899,2.002,1.885,,,,49.9279955609,4.52567373636,1
08260 Maubert-Fontaine,Grand Est,Ardennes,1.889,1.919,,0.998,1.865,,49.867,4.428,1
08270 Saulces-Monclin,Grand Est,Ardennes,1.99,1.99,,1.259,1.99,1.054,49.594069537325,4.5029188207464,1
08300 Amagne,Grand Est,Ardennes,1.896,1.986,,,1.889,,49.51743,4.49483,1
08300 Rethel,Grand Est,Ardennes,1.844,1.916,,0.994,1.858,,49.5075,4.364000000000001,2
08300 Sault-lès-Rethel,Grand Est,Ardennes,1.846,1.919,,0.998,1.853,,49.50033,4.35794,1
08320 Hierges,Grand Est,Ardennes,1.84,,,1.16,1.88,,50.106,4.743,1
08320 Vireux-Molhain,Grand Est,Ardennes,1.828,1.889,1.875,,1.809,,50.081,4.725,1
08330 Vrigne aux Bois,Grand Est,Ardennes,1.929,1.969,1.949,,,,49.735,4.85,1
08350 Donchery,Grand Est,Ardennes,1.929,1.949,1.929,,,,49.698,4.866,1
08360 Château-Porcien,Grand Est,Ardennes,1.879,1.969,1.879,,,,49.53,4.249,1
08400 Vouziers,Grand Est,Ardennes,1.8376666666666666,1.901,1.8305,0.955,1.8303333333333331,,49.4,4.698,3
08430 Poix-Terron,Grand Est,Ardennes,1.999,2.021,,,1.945,,49.651,4.642,1
08500 Revin,Grand Est,Ardennes,1.888,,,,1.898,,49.939,4.641,1
08600 Givet,Grand Est,Ardennes,1.9215,1.896,2.05,0.998,1.834,,50.133731201032504,4.834273094968,2
08700 Nouzonville,Grand Est,Ardennes,1.879,1.93,1.915,,,,49.81889,4.74094,1
08800 Les Hautes-Rivières,Grand Est,Ardennes,1.997,2.068,,,1.999,,49.873,4.849,1
08800 Monthermé,Grand Est,Ardennes,1.912,1.916,1.895,,1.934,,49.8825,4.7405,2
09000 Foix,Occitanie,Ariège,1.9015,1.941,1.88,0.9764999999999999,1.8845,1.01,42.955012272015246,1.6213857562862501,4
09100 Pamiers,Occitanie,Ariège,1.89525,1.919,1.865,0.9966666666666667,1.874,,43.116,1.6172499999999999,4
09100 Saint-Jean-du-Falga,Occitanie,Ariège,1.779,1.809,,0.954,1.76,1.01,43.084,1.63,1
09110 Perles-et-Castelet,Occitanie,Ariège,1.899,1.84,,,1.872,,42.7442317,1.7855673,1
09110 Savignac-les-Ormeaux,Occitanie,Ariège,1.91,,1.91,,1.872,,42.73,1.821,1
09140 Oust,Occitanie,Ariège,,1.99,,0.994,1.892,,42.883,1.215,1
09190 Saint-Lizier,Occitanie,Ariège,1.8605,1.905,1.869,1.0735000000000001,1.839,,42.9995193145015,1.133390884848,2
09200 Saint-Girons,Occitanie,Ariège,1.8545,1.9100000000000001,1.869,1.0665,1.811,0.997,42.97642449278099,1.14826165676115,2
09210 Lézat-sur-Lèze,Occitanie,Ariège,1.769,1.764,,0.947,1.721,,43.281,1.348,1
09220 Val-de-Sos,Occitanie,Ariège,1.929,1.914,,,1.859,,42.7699,1.50032,1
09240 La Bastide-de-Sérou,Occitanie,Ariège,1.897,1.873,,,1.825,,43.012,1.431,1
09270 Mazères,Occitanie,Ariège,1.85,1.84,1.82,,1.916,,43.251,1.678,1
09300 Bélesta,Occitanie,Ariège,1.904,1.914,,,1.84,,42.905037458101006,1.93068992624905,2
09300 Lavelanet,Occitanie,Ariège,1.8785,1.879,1.868,0.999,1.839,,42.932694999999995,1.8556750000000002,2
09340 Verniolle,Occitanie,Ariège,1.815,1.877,,,1.76,,43.079,1.638,1
09350 Les Bordes-sur-Arize,Occitanie,Ariège,1.88,1.865,1.835,,,,43.108130777057994,1.37493244737,1
09400 Tarascon-sur-Ariège,Occitanie,Ariège,1.957,2.1245,2.037,1.177,1.859,,42.848085,1.6008900000000001,2
09500 Mirepoix,Occitanie,Ariège,1.8423333333333334,1.9066666666666665,1.8795,0.996,1.8199999999999998,,43.08585333333334,1.8733966666666664,3
09600 Laroque-d'Olmes,Occitanie,Ariège,1.8645,1.972,1.979,1.034,1.82,,42.975865,1.86787,2
09700 Saverdun,Occitanie,Ariège,1.859,1.899,,0.998,1.829,0.999,43.253,1.565,1
10000 Troyes,Grand Est,Aube,1.8922,1.9542000000000002,,0.994,1.8858000000000001,,48.29159,4.078081999999999,5
10100 Romilly-sur-Seine,Grand Est,Aube,1.86175,1.91375,1.888,0.953,1.8616666666666666,0.999,48.508795,3.7323575,4
10110 Bar-sur-Seine,Grand Est,Aube,1.887,1.957,,1.0285,1.8820000000000001,,48.110884999999996,4.379144999999999,2
10120 Saint-André-les-Vergers,Grand Est,Aube,1.8775,1.931,,0.971,1.8719999999999999,,48.2845,4.053000000000001,2
10120 Saint-Germain,Grand Est,Aube,1.8944999999999999,1.9495,1.879,,1.9045,,48.2512597042015,4.0281018858597,2
10130 Auxon,Grand Est,Aube,1.929,1.999,,0.998,1.899,,48.11,3.921,1
10130 Ervy-le-Châtel,Grand Est,Aube,1.949,1.999,1.979,,,,48.046,3.924,1
10140 Vendeuvre-sur-Barse,Grand Est,Aube,1.949,,1.979,,,,48.237,4.467,1
10150 Charmont-sous-Barbuise,Grand Est,Aube,1.944,,,,1.957,,48.4110575553,4.14348044661,1
10150 Creney-près-Troyes,Grand Est,Aube,1.803,1.907,1.832,0.998,1.808,,48.328,4.113,1
10150 Pont-Sainte-Marie,Grand Est,Aube,1.857,1.946,,,1.866,,48.311528032361,4.097007878988999,1
10160 Aix-Villemaur-Pâlis,Grand Est,Aube,1.859,1.889,,,1.829,,48.216,3.741,1
10170 Méry-sur-Seine,Grand Est,Aube,1.869,1.92,,0.998,1.859,,48.50802136869999,3.87881675396,1
10180 Saint-Lyé,Grand Est,Aube,1.811,1.853,,0.998,1.786,,48.367,3.997,1
10190 Estissac,Grand Est,Aube,1.949,,1.979,,,,48.274,3.804,1
10200 Bar-sur-Aube,Grand Est,Aube,1.8956666666666668,2.039,1.9456666666666667,0.997,1.829,,48.23166666666666,4.709333333333333,3
10210 Chaource,Grand Est,Aube,1.8744999999999998,1.9595,1.8995,,,,48.061925,4.14088,2
10230 Mailly-le-Camp,Grand Est,Aube,1.8944999999999999,1.999,1.9445000000000001,,,,48.671324999999996,4.19163,2
10250 Mussy-sur-Seine,Grand Est,Aube,1.9415,2.029,1.9660000000000002,1.038,,,47.979,4.495,2
10260 Fouchères,Grand Est,Aube,1.99,1.99,,,1.99,,48.15,4.262,1
10260 Vaudes,Grand Est,Aube,1.862,1.907,1.883,,,,48.181,4.189,1
10270 Fresnoy-le-Château,Grand Est,Aube,1.99,1.99,,1.249,1.99,1.054,48.212577777374,4.2409903142154,2
10270 Lusigny-sur-Barse,Grand Est,Aube,1.8375,1.9075,1.888,0.955,1.808,,48.257722282728,4.2553198733413,2
10300 La Chapelle-Saint-Luc,Grand Est,Aube,1.83,1.892,1.854,,1.839,0.899,48.305,4.027,1
10300 Sainte-Savine,Grand Est,Aube,1.854,1.9355,,0.999,1.861,0.924,48.292500000000004,4.04,2
10340 Les Riceys,Grand Est,Aube,1.969,2.029,1.999,,,,47.99651,4.36718,1
10350 Marigny-le-Châtel,Grand Est,Aube,1.845,1.896,1.871,,1.833,,48.406,3.738,1
10360 Essoyes,Grand Est,Aube,1.969,2.029,1.999,,,,48.0606395,4.5380332,1
10370 Villenauxe-la-Grande,Grand Est,Aube,1.819,,1.859,,1.819,,48.585,3.561,1
10400 Nogent-sur-Seine,Grand Est,Aube,1.849,1.879,1.851,,1.806,,48.4891687968,3.50203303223,2
10410 Villechétif,Grand Est,Aube,1.803,1.907,1.832,0.955,1.808,0.899,48.297951133716005,4.1336364178578995,1
10430 Rosières-près-Troyes,Grand Est,Aube,1.83,1.907,1.832,0.955,1.8215,,48.264254020727,4.04908638064265,2
10500 Brienne-le-Château,Grand Est,Aube,1.8639999999999999,1.895,1.869,,1.842,,48.397758350000004,4.523128,2
10500 Lesmont,Grand Est,Aube,1.947,1.99,,,1.934,,48.428,4.421,1
10600 Barberey-Saint-Sulpice,Grand Est,Aube,1.826,1.919,,0.969,1.8279999999999998,0.899,48.3345,4.021,2
10600 La Chapelle-Saint-Luc,Grand Est,Aube,1.92,2.02,,,1.93,,48.304,4.032,1
10700 Arcis-sur-Aube,Grand Est,Aube,1.8755,1.9395,,,1.861,,48.535,4.1436666666666655,3
10800 Buchères,Grand Est,Aube,1.877,1.922,,,1.878,,48.237,4.109,1
10800 Saint-Julien-les-Villas,Grand Est,Aube,1.8596666666666666,1.9093333333333333,1.884,0.998,1.8456666666666666,,48.272220000000004,4.090613333333334,3
11000 Carcassonne,Occitanie,Aude,1.8454000000000002,1.9012222222222224,1.8565,1.0545,1.807375,1.004,43.21344583333334,2.349855,12
11100 Narbonne,Occitanie,Aude,1.8270833333333334,1.866,1.955,1.0088333333333332,1.785,1.0165,43.17804169869317,2.9942245854615166,12
11110 Coursan,Occitanie,Aude,1.867,,1.862,0.999,1.819,,43.23,3.051,1
11110 Salles-d'Aude,Occitanie,Aude,1.957,1.9649999999999999,1.894,1.148,1.9433333333333334,1.054,43.2226218824,3.09801570578,3
11120 Saint-Marcel-sur-Aude,Occitanie,Aude,1.887,1.916,1.899,,1.855,,43.253660005301995,2.91335730595845,2
11130 Sigean,Occitanie,Aude,1.909,1.889,,0.999,1.849,,43.031,2.965,1
11140 Axat,Occitanie,Aude,1.94,,,,1.93,,42.8041025698,2.23146003573,1
11150 Bram,Occitanie,Aude,1.859,1.899,1.869,,,,43.241,2.101,1
11150 Villepinte,Occitanie,Aude,1.829,1.869,1.859,,,,43.279337149999996,2.0937715565,1
11160 Peyriac-Minervois,Occitanie,Aude,1.816,1.859,1.835,,,,43.284583541238,2.5747807541329997,1
11160 Villeneuve-Minervois,Occitanie,Aude,1.924,1.96,1.943,,,,43.314,2.47,1
11170 Alzonne,Occitanie,Aude,1.859,1.889,,0.999,1.829,,43.254648546805996,2.1702284307732,1
11170 Pezens,Occitanie,Aude,,,,,,,43.25496,2.26733,1
11200 Homps,Occitanie,Aude,1.799,1.849,,0.998,1.769,,43.265,2.718,1
11200 Lézignan-Corbières,Occitanie,Aude,1.829,1.8556666666666668,1.8523333333333334,0.9944999999999999,1.8014999999999999,1.017,43.196735860000004,2.7601939399999997,5
11210 Port-la-Nouvelle,Occitanie,Aude,1.909,1.889,,0.999,1.849,,43.0188436755,3.0411213390849996,2
11220 Saint-Laurent-de-la-Cabrerisse,Occitanie,Aude,1.935,1.983,1.954,,,,43.087,2.703,1
11250 Rouffiac-d'Aude,Occitanie,Aude,1.99,,1.99,,,,43.124,2.294,1
11260 Espéraza,Occitanie,Aude,1.849,,,,1.849,1.049,42.93381,2.20846,1
11290 Arzens,Occitanie,Aude,1.964,2.018,,1.08,1.935,1.118,43.221,2.2039999999999997,2
11290 Lavalette,Occitanie,Aude,1.832,1.908,,,1.811,,43.184973456197994,2.2604546015442,1
11290 Montréal,Occitanie,Aude,1.93,1.99,,,1.895,,43.2,2.139,1
11300 Limoux,Occitanie,Aude,1.885,1.8840000000000001,1.964,1.1266666666666667,1.8135,1.039,43.0595075,2.219105,4
11310 Saissac,Occitanie,Aude,1.86,1.84,1.82,,,,43.362978379985,2.1613941268092,1
11330 Mouthoumet,Occitanie,Aude,2.022,,2.135,1.471,,,42.96,2.529,1
11370 Leucate,Occitanie,Aude,1.857,1.927,,,1.857,,42.8802147937,3.03590315367,2
11400 Castelnaudary,Occitanie,Aude,1.8954,1.9795,1.9223333333333334,1.0043333333333333,1.8436666666666666,1.027,43.313523999999994,1.958334,5
11430 Gruissan,Occitanie,Aude,1.8639999999999999,1.9140000000000001,1.899,0.994,1.838,1.017,43.113,3.0975,2
11480 La Palme,Occitanie,Aude,1.9833333333333334,2.0443333333333333,,1.229,1.9463333333333332,1.0553333333333332,42.958619746568,2.9816856568186,3
11500 Quillan,Occitanie,Aude,1.9080000000000001,1.97,1.839,1.169,1.9325,,42.87700173333334,2.1842725,3
11540 Roquefort-des-Corbières,Occitanie,Aude,1.932,1.99,,0.994,1.901,0.959,42.992,2.971,1
11560 Fleury,Occitanie,Aude,1.99,1.99,1.99,,,,43.172,3.181,1
11590 Sallèles-d'Aude,Occitanie,Aude,1.854,1.907,1.95,,1.763,,43.260270000000006,2.947655,2
11600 Villegly,Occitanie,Aude,1.899,,,,1.909,,43.282,2.437,1
11620 Villemoustaussou,Occitanie,Aude,1.889,1.929,1.909,0.99,,1.017,43.252,2.361,1
11700 Capendu,Occitanie,Aude,1.93875,2.0135,,1.13,1.944,,43.184321463235996,2.556533114830625,4
11700 La Redorte,Occitanie,Aude,1.849,1.998,,0.999,1.799,,43.252,2.652,1
11800 Trèbes,Occitanie,Aude,1.8175,1.9385,,0.998,1.809,,43.206500000000005,2.449,2
12000 Onet-le-Château,Occitanie,Aveyron,1.946,1.99,,1.099,1.907,,44.377,2.593,1
12000 Rodez,Occitanie,Aveyron,1.9055,1.9224999999999999,1.92475,0.994,1.8339999999999999,,44.359951061783995,2.5688349896651332,6
12100 Creissels,Occitanie,Aveyron,1.775,1.835,,0.965,1.758,0.948,44.081062692212996,3.0421918021066503,2
12100 Millau,Occitanie,Aveyron,1.8736000000000002,1.9276,1.839,,1.86175,0.949,44.107666,3.078608,5
12110 Cransac,Occitanie,Aveyron,1.889,1.899,,,1.819,,44.526,2.269,1
12110 Viviez,Occitanie,Aveyron,1.9195,1.99,,0.998,1.8885,,44.560353555218995,2.2243924751848,2
12120 Cassagnes-Bégonhès,Occitanie,Aveyron,1.884,,1.889,,1.944,,44.17642425,2.52119462,1
12130 Saint Geniez d'Olt et d'Aubrac,Occitanie,Aveyron,1.9125,1.885,1.93,,1.81,,44.461,2.9675000000000002,2
12140 Entraygues-sur-Truyère,Occitanie,Aveyron,1.991,2.006,1.999,1.18,,,44.649,2.568,1
12150 Sévérac d'Aveyron,Occitanie,Aveyron,1.8778,1.9260000000000002,1.851,1.174,1.8944999999999999,1.054,44.331053604721795,3.0514012677088003,5
12160 Baraqueville,Occitanie,Aveyron,1.9035,,1.9060000000000001,1.049,1.819,,44.2775,2.4370000000000003,2
12170 Réquista,Occitanie,Aveyron,1.885,1.865,1.869,,1.809,,44.033,2.5285,2
12200 Villefranche-de-Rouergue,Occitanie,Aveyron,1.8643333333333334,1.925,1.85725,0.998,1.8265,0.99,44.35971102208233,2.02042168446245,6
12210 Laguiole,Occitanie,Aveyron,1.889,1.909,1.899,,,,44.683,2.851,1
12220 Montbazens,Occitanie,Aveyron,1.899,,1.869,1.199,,,44.461389568937996,2.2223507921239,1
12230 L'Hospitalet-du-Larzac,Occitanie,Aveyron,1.848,1.884,1.839,,,,43.974,3.204,1
12230 Nant,Occitanie,Aveyron,1.954,,1.951,,,,44.01406,3.30473,1
12240 Rieupeyroux,Occitanie,Aveyron,1.8505,1.859,,,1.8239999999999998,,44.307060821059494,2.24551168414935,2
12260 Villeneuve,Occitanie,Aveyron,1.99,1.99,1.99,,1.99,,44.435500000000005,2.0295,2
12270 La Fouillade,Occitanie,Aveyron,1.9165,1.9395,1.959,,1.809,,44.234620500752996,2.0354160234136,2
12290 Pont-de-Salars,Occitanie,Aveyron,1.889,1.859,1.959,,1.779,,44.2885,2.7145,2
12300 Decazeville,Occitanie,Aveyron,1.8416666666666668,1.891,1.839,1.099,1.811,,44.558710425214336,2.2553748966285,3
12300 Flagnac,Occitanie,Aveyron,1.849,,1.899,,,,44.604211987517004,2.2475463212208,1
12310 Bertholène,Occitanie,Aveyron,1.934,1.99,1.961,,,,44.39367,2.77776,1
12310 Laissac-Sévérac l'Église,Occitanie,Aveyron,1.859,,1.839,,,,44.3835355899,2.82285354974,1
12330 Saint-Christophe-Vallon,Occitanie,Aveyron,1.863,1.883,,,1.815,,44.469,2.414,1
12330 Salles-la-Source,Occitanie,Aveyron,1.865,1.886,,,1.806,,44.455,2.473,1
12330 Valady,Occitanie,Aveyron,1.959,,1.959,,,,44.441,2.441,1
12340 Bozouls,Occitanie,Aveyron,1.8975,1.9295,,,1.854,,44.466,2.7279999999999998,2
12350 Lanuéjouls,Occitanie,Aveyron,1.899,1.949,,,1.899,,44.424,2.156,1
12360 Camarès,Occitanie,Aveyron,1.879,,1.869,,1.829,,43.832,2.873,1
12390 Rignac,Occitanie,Aveyron,1.849,1.889,1.859,,,,44.405,2.296,1
12400 Murat-sur-Vèbre,Occitanie,Tarn,1.848,1.884,1.839,1.11,1.826,,43.683,2.86,1
12400 Rebourguil,Occitanie,Aveyron,1.848,1.884,1.839,,,,43.876,2.778,1
12400 Saint-Affrique,Occitanie,Aveyron,1.8453333333333333,1.9013333333333333,,0.965,1.822,0.948,43.95666666666667,2.8786666666666663,3
12400 Vabres-l'Abbaye,Occitanie,Aveyron,1.799,,1.809,0.999,1.769,,43.954,2.85,1
12430 Villefranche-de-Panat,Occitanie,Aveyron,1.969,,1.949,,,,44.09,2.701,1
12450 Luc-la-Primaube,Occitanie,Aveyron,1.8785,1.924,1.951,1.098,1.778,,44.29442,2.55825,2
12490 Saint-Rome-de-Cernon,Occitanie,Aveyron,1.919,,1.999,,,,44.012,2.964,1
12490 Saint-Rome-de-Tarn,Occitanie,Aveyron,1.848,1.884,1.839,,,,44.043,2.905,1
12500 Espalion,Occitanie,Aveyron,1.8856666666666666,1.869,1.8940000000000001,1.099,1.799,,44.523666666666664,2.764666666666667,3
12510 Olemps,Occitanie,Aveyron,1.849,1.899,,1.099,1.819,,44.325,2.558,1
12560 Campagnac,Occitanie,Aveyron,1.879,,1.969,,,,44.417596130231004,3.0884971173364,1
12560 Saint-Laurent-d'Olt,Occitanie,Aveyron,1.843,,1.865,,,,44.445,3.109,1
12560 Saint-Saturnin-de-Lenne,Occitanie,Aveyron,1.855,1.899,,,1.839,,44.42315860941999,3.0125916032708,1
12580 Campuac,Occitanie,Aveyron,1.95,1.96,,,1.9,,44.57,2.592,1
12600 Mur-de-Barrez,Occitanie,Aveyron,1.924,1.9535,1.932,,,,44.838855,2.66385,2
12700 Capdenac-Gare,Occitanie,Aveyron,1.839,1.869,1.849,,1.779,,44.571,2.075,1
12780 Saint-Léons,Occitanie,Aveyron,1.855,1.899,1.875,,,,44.2360994618,2.9868431228800003,1
12800 Naucelle,Occitanie,Aveyron,1.8946666666666667,1.939,1.8975,1.13,1.799,,44.18972287383334,2.35472894979,3
12850 Onet-le-Château,Occitanie,Aveyron,1.8203333333333334,1.865,1.818,1.099,1.7903333333333336,0.989,44.377,2.594333333333333,3
13000 Marseille,Provence-Alpes-Côte d'Azur,Bouches-du-Rhône,1.91,1.93,1.899,,,,43.348451033044995,5.3770151681026,1
13002 Marseille,Provence-Alpes-Côte d'Azur,Bouches-du-Rhône,,1.939,,,1.849,,43.302,5.371,1
13003 Marseille,Provence-Alpes-Côte d'Azur,Bouches-du-Rhône,1.859,1.891,,0.994,1.807,,43.317,5.381,1
13004 Marseille,Provence-Alpes-Côte d'Azur,Bouches-du-Rhône,1.877,1.909,1.838,0.998,1.798,0.919,43.308695,5.4031199999999995,2
13005 Marseille,Provence-Alpes-Côte d'Azur,Bouches-du-Rhône,1.8956666666666664,1.963,,0.9940000000000001,1.8683333333333332,,43.291650000000004,5.400580000000001,3
13006 Marseille,Provence-Alpes-Côte d'Azur,Bouches-du-Rhône,1.9295,1.981,1.999,,1.871,,43.2856,5.3825400000000005,2
13007 Marseille,Provence-Alpes-Côte d'Azur,Bouches-du-Rhône,1.8655,1.9620000000000002,,,1.8719999999999999,,43.284985138164004,5.361296100871449,2
13008 Marseille,Provence-Alpes-Côte d'Azur,Bouches-du-Rhône,1.845625,1.9316666666666666,1.949,1.0213333333333334,1.8367999999999998,,43.25772753828889,5.386271539447155,9
13009 Marseille,Provence-Alpes-Côte d'Azur,Bouches-du-Rhône,1.823,1.8696666666666666,,0.964,1.79225,,43.25125,5.41,4
13010 Marseille,Provence-Alpes-Côte d'Azur,Bouches-du-Rhône,1.8310000000000002,1.8915000000000002,,1.042,1.8159999999999998,,43.2760853880715,5.4153255115568,4
13011 Marseille,Provence-Alpes-Côte d'Azur,Bouches-du-Rhône,1.874818181818182,1.897181818181818,,1.0152857142857141,1.8339090909090907,0.9390000000000001,43.29354758738354,5.4717876626358,11
13012 Marseille,Provence-Alpes-Côte d'Azur,Bouches-du-Rhône,1.8893333333333333,1.9186,1.8415,0.994,1.8386,,43.301975000000006,5.431855,6
13013 Allauch,Provence-Alpes-Côte d'Azur,Bouches-du-Rhône,1.77,1.824,,,1.748,,43.333,5.46,1
13013 Marseille,Provence-Alpes-Côte d'Azur,Bouches-du-Rhône,1.9187142857142856,1.9794285714285713,1.857,1.0615999999999999,1.8894285714285715,0.984,43.33077087382857,5.427666328307142,7
13014 Marseille,Provence-Alpes-Côte d'Azur,Bouches-du-Rhône,1.87625,1.941,1.8565,1.119,1.852,,43.325091183333335,5.38903955,6
13015 Marseille,Provence-Alpes-Côte d'Azur,Bouches-du-Rhône,1.859,1.9292000000000002,1.816,0.999,1.8518000000000001,,43.366817947979996,5.354575589038,5
13016 Marseille,Provence-Alpes-Côte d'Azur,Bouches-du-Rhône,1.8624999999999998,1.929,,,1.8319999999999999,0.919,43.3527,5.335274999999999,2
13090 Aix-en-Provence,Provence-Alpes-Côte d'Azur,Bouches-du-Rhône,1.83375,1.9000000000000001,,0.994,1.80725,0.9590000000000001,43.53561275,5.426025750000001,4
13100 Aix-en-Provence,Provence-Alpes-Côte d'Azur,Bouches-du-Rhône,1.854875,1.925857142857143,,1.0804285714285713,1.838125,0.989,43.526233721962505,5.452168338545,8
13105 Mimet,Provence-Alpes-Côte d'Azur,Bouches-du-Rhône,1.875,1.913,1.88,,1.845,,43.42967,5.47296,1
13110 Port-de-Bouc,Provence-Alpes-Côte d'Azur,Bouches-du-Rhône,1.8603333333333332,1.925,1.81,1.099,1.8490000000000002,,43.4131394151,4.986989018586667,3
13112 La Destrousse,Provence-Alpes-Côte d'Azur,Bouches-du-Rhône,1.8943333333333332,1.9863333333333333,1.892,1.199,1.88,,43.388,5.5986666666666665,3
13115 Saint-Paul-lès-Durance,Provence-Alpes-Côte d'Azur,Bouches-du-Rhône,1.99,2.251,1.99,,,,43.686,5.713,1
13120 Gardanne,Provence-Alpes-Côte d'Azur,Bouches-du-Rhône,1.8978000000000002,1.9609999999999999,1.959,1.0386666666666666,1.8745,,43.456659153487,5.467246510724719,5
13122 Ventabren,Provence-Alpes-Côte d'Azur,Bouches-du-Rhône,1.9035,1.9475,,0.998,1.8765,,43.542585,5.283575,2
13124 Peypin,Provence-Alpes-Côte d'Azur,Bouches-du-Rhône,1.944,1.99,,1.209,1.915,1.038,43.400753611954,5.57568771166955,2
13127 Vitrolles,Provence-Alpes-Côte d'Azur,Bouches-du-Rhône,1.8504285714285713,1.9488333333333332,1.809,0.998,1.8274285714285714,0.9015,43.43942297237486,5.254514262779844,7
13130 Berre-l'Étang,Provence-Alpes-Côte d'Azur,Bouches-du-Rhône,1.8506666666666665,1.871,,1.0565,1.83,,43.49747333333334,5.184896666666667,3
13140 Miramas,Provence-Alpes-Côte d'Azur,Bouches-du-Rhône,1.8365,1.8696666666666666,,1.06875,1.8175,,43.590734999999995,5.0005524999999995,4
13150 Tarascon,Provence-Alpes-Côte d'Azur,Bouches-du-Rhône,1.8313333333333333,1.882,1.849,0.998,1.8046666666666666,,43.804476666666666,4.673596666666667,3
13160 Châteaurenard,Provence-Alpes-Côte d'Azur,Bouches-du-Rhône,1.865,1.8823333333333334,1.799,1.049,1.801,,43.88531053078425,4.850985749228549,4
13170 Les Pennes-Mirabeau,Provence-Alpes-Côte d'Azur,Bouches-du-Rhône,1.848,1.888,1.8973333333333333,1.0656666666666668,1.8125,0.924,43.40985651922083,5.324776648020116,6
13180 Gignac-la-Nerthe,Provence-Alpes-Côte d'Azur,Bouches-du-Rhône,1.825,,1.849,,,,43.38753608,5.23277519,1
13180 Le Rove,Provence-Alpes-Côte d'Azur,Bouches-du-Rhône,2.0195,2.0695,,1.154,2.009,1.1015000000000001,43.3901477630705,5.25097108139785,2
13190 Allauch,Provence-Alpes-Côte d'Azur,Bouches-du-Rhône,1.91,1.99,,,1.906,,43.3313407651,5.48618920788,1
13200 Arles,Provence-Alpes-Côte d'Azur,Bouches-du-Rhône,1.850125,1.9322857142857142,1.8383333333333332,1.1353333333333333,1.7961666666666665,1.029,43.67886649736249,4.6366225166287505,8
13210 Saint-Rémy-de-Provence,Provence-Alpes-Côte d'Azur,Bouches-du-Rhône,1.9393333333333331,1.957,1.9356666666666669,1.29,1.819,,43.79036333333334,4.83193,3
13220 Châteauneuf-les-Martigues,Provence-Alpes-Côte d'Azur,Bouches-du-Rhône,1.85,1.8900000000000001,1.81,,1.816,0.917,43.392238966952505,5.14923196864775,2
13230 Port-Saint-Louis-du-Rhône,Provence-Alpes-Côte d'Azur,Bouches-du-Rhône,1.855,1.873,1.914,0.998,1.8455,,43.38886,4.80308,2
13240 Septèmes-les-Vallons,Provence-Alpes-Côte d'Azur,Bouches-du-Rhône,1.897,,1.962,,,,43.393,5.364,1
13260 Cassis,Provence-Alpes-Côte d'Azur,Bouches-du-Rhône,1.91,,,0.994,,,43.217,5.546,1
13270 Fos-sur-Mer,Provence-Alpes-Côte d'Azur,Bouches-du-Rhône,1.8344,1.87975,1.899,0.998,1.80275,0.919,43.4574112833436,4.92844295811954,5
13270 Port-de-Bouc,Provence-Alpes-Côte d'Azur,Bouches-du-Rhône,1.799,1.871,,,1.791,0.919,43.42,4.979,1
13300 Salon-de-Provence,Provence-Alpes-Côte d'Azur,Bouches-du-Rhône,1.830625,1.8949999999999998,1.758,0.98475,1.80325,0.9095,43.632460961125005,5.08385607353875,8
13310 Saint-Martin-de-Crau,Provence-Alpes-Côte d'Azur,Bouches-du-Rhône,1.8639999999999999,1.918,1.8635000000000002,0.999,1.819,,43.6375,4.7985,2
13320 Bouc-Bel-Air,Provence-Alpes-Côte d'Azur,Bouches-du-Rhône,1.9235714285714285,1.9831428571428573,,1.0566,1.892,1.054,43.442869802034004,5.409216070104571,7
13330 Pélissanne,Provence-Alpes-Côte d'Azur,Bouches-du-Rhône,1.776,1.827,,0.998,1.756,,43.629433478098,5.1344906934422,1
13340 Rognac,Provence-Alpes-Côte d'Azur,Bouches-du-Rhône,1.9366666666666665,1.871,1.877,1.009,,,43.49179861691733,5.225889041761133,3
13360 Roquevaire,Provence-Alpes-Côte d'Azur,Bouches-du-Rhône,1.885,,,0.998,1.809,,43.351,5.603,1
13370 Mallemort,Provence-Alpes-Côte d'Azur,Bouches-du-Rhône,1.8583333333333334,1.875,1.899,1.0135,1.795,,43.72193873333333,5.176270496666667,3
13380 Plan-de-Cuques,Provence-Alpes-Côte d'Azur,Bouches-du-Rhône,1.868,1.933,,1.052,1.853,,43.34118223755699,5.456789325646399,1
13390 Auriol,Provence-Alpes-Côte d'Azur,Bouches-du-Rhône,1.859,1.899,,,1.819,,43.368,5.643,1
13400 Aubagne,Provence-Alpes-Côte d'Azur,Bouches-du-Rhône,1.8996666666666666,1.9646666666666668,,1.0123333333333333,1.8703333333333332,,43.291550719049006,5.567133987481665,6
13410 Lambesc,Provence-Alpes-Côte d'Azur,Bouches-du-Rhône,1.8475000000000001,1.939,1.869,1.019,1.8235000000000001,,43.648639878111496,5.260359617235601,2
13420 Gémenos,Provence-Alpes-Côte d'Azur,Bouches-du-Rhône,1.88,1.91,,,1.876,,43.279,5.615,1
13430 Eyguières,Provence-Alpes-Côte d'Azur,Bouches-du-Rhône,1.9085,1.949,1.977,0.999,1.799,,43.686575000000005,5.0347,2
13440 Cabannes,Provence-Alpes-Côte d'Azur,Bouches-du-Rhône,1.8359999999999999,1.885,,1.079,1.9020000000000001,,43.859730826519,4.9515887253,2
13450 Grans,Provence-Alpes-Côte d'Azur,Bouches-du-Rhône,1.829,1.879,,,1.779,,43.601650511466005,5.0746754516205,1
13460 Saintes-Maries-de-la-Mer,Provence-Alpes-Côte d'Azur,Bouches-du-Rhône,1.9445000000000001,1.9845000000000002,1.949,1.33,1.93,,43.454975,4.42934,2
13470 Carnoux-en-Provence,Provence-Alpes-Côte d'Azur,Bouches-du-Rhône,1.899,1.939,,0.998,1.865,,43.25094,5.54822,1
13480 Cabriès,Provence-Alpes-Côte d'Azur,Bouches-du-Rhône,1.9,1.982,,,1.872,,43.465,5.353,1
13480 Les Pennes-Mirabeau,Provence-Alpes-Côte d'Azur,Bouches-du-Rhône,1.766,1.814,1.807,,1.743,,43.41711,5.35583,1
13500 Martigues,Provence-Alpes-Côte d'Azur,Bouches-du-Rhône,1.8711666666666666,1.934,1.829,1.099,1.8548333333333333,0.849,43.40893166666666,5.041758333333333,6
13510 Éguilles,Provence-Alpes-Côte d'Azur,Bouches-du-Rhône,1.922,1.99,,,1.924,,43.557,5.361000000000001,2
13520 Paradou,Provence-Alpes-Côte d'Azur,Bouches-du-Rhône,1.99,1.99,1.99,,,,43.723,4.797,1
13530 Trets,Provence-Alpes-Côte d'Azur,Bouches-du-Rhône,1.909,1.999,1.889,1.029,1.899,,43.4505,5.6835,2
13546 Aix-en-Provence,Provence-Alpes-Côte d'Azur,Bouches-du-Rhône,1.819,1.862,1.836,0.935,1.779,0.917,43.506,5.399,1
13550 Noves,Provence-Alpes-Côte d'Azur,Bouches-du-Rhône,1.92,1.986,,1.019,1.894,,43.87688,4.90072,1
13560 Sénas,Provence-Alpes-Côte d'Azur,Bouches-du-Rhône,1.91125,1.9473333333333336,1.99,,1.8479999999999999,,43.7427728,5.084238075,4
13570 Barbentane,Provence-Alpes-Côte d'Azur,Bouches-du-Rhône,1.849,1.859,,,1.799,,43.908,4.773,1
13580 La Fare-les-Oliviers,Provence-Alpes-Côte d'Azur,Bouches-du-Rhône,1.849,1.859,1.849,1.014,,,43.55,5.193,2
13590 Meyreuil,Provence-Alpes-Côte d'Azur,Bouches-du-Rhône,1.9195,1.976,,1.029,1.8875000000000002,,43.49493598693,5.501602130699601,2
13600 La Ciotat,Provence-Alpes-Côte d'Azur,Bouches-du-Rhône,1.913714285714286,1.9364999999999999,1.861,1.0956666666666666,1.8760000000000001,1.0726666666666667,43.190068070759004,5.626249850627614,7
13610 Le Puy-Sainte-Réparade,Provence-Alpes-Côte d'Azur,Bouches-du-Rhône,1.959,1.999,,1.199,1.899,,43.662,5.448,1
13620 Carry-le-Rouet,Provence-Alpes-Côte d'Azur,Bouches-du-Rhône,1.922,1.99,1.956,1.079,1.948,,43.329,5.144500000000001,2
13630 Eyragues,Provence-Alpes-Côte d'Azur,Bouches-du-Rhône,1.849,1.874,,,1.8039999999999998,,43.84024619874034,4.8397334296183665,3
13640 La Roque-d'Anthéron,Provence-Alpes-Côte d'Azur,Bouches-du-Rhône,1.926,1.99,,,1.89,,43.721,5.288,1
13650 Meyrargues,Provence-Alpes-Côte d'Azur,Bouches-du-Rhône,1.9765000000000001,2.056,,,1.9565,1.083,43.635999999999996,5.5085,2
13660 Orgon,Provence-Alpes-Côte d'Azur,Bouches-du-Rhône,1.821,1.858,,0.998,1.789,,43.791,5.028,1
13660 Plan-d'Orgon,Provence-Alpes-Côte d'Azur,Bouches-du-Rhône,1.894,1.967,,,1.809,,43.7962,4.98973,1
13670 Saint-Andiol,Provence-Alpes-Côte d'Azur,Bouches-du-Rhône,1.857,1.919,1.867,1.029,1.816,,43.8454877277,4.93273027405,1
13680 Lançon-Provence,Provence-Alpes-Côte d'Azur,Bouches-du-Rhône,1.93425,1.9626666666666666,,1.0756666666666668,1.91425,1.054,43.591429124297505,5.15706938687785,4
13700 Marignane,Provence-Alpes-Côte d'Azur,Bouches-du-Rhône,1.809,1.8726666666666667,1.809,,1.7886666666666666,,43.415288279211666,5.217788364454833,3
13700 Saint-Victoret,Provence-Alpes-Côte d'Azur,Bouches-du-Rhône,1.899,,1.899,0.998,1.839,,43.418,5.228,1
13700 Vitrolles,Provence-Alpes-Côte d'Azur,Bouches-du-Rhône,1.9,1.985,,0.994,1.875,,43.444,5.225,1
13710 Fuveau,Provence-Alpes-Côte d'Azur,Bouches-du-Rhône,1.896,1.944,1.909,1.0486666666666666,1.879,0.88,43.4602702401575,5.563145008772825,4
13730 Saint-Victoret,Provence-Alpes-Côte d'Azur,Bouches-du-Rhône,1.849,1.929,,,1.819,,43.4176395233,5.23355234064,1
13740 Le Rove,Provence-Alpes-Côte d'Azur,Bouches-du-Rhône,1.9255,1.9645000000000001,,,1.8855,,43.367,5.245,2
13750 Plan-d'Orgon,Provence-Alpes-Côte d'Azur,Bouches-du-Rhône,1.8816666666666666,1.949,1.926,,1.864,,43.81066666666666,5.007333333333333,3
13760 Saint-Cannat,Provence-Alpes-Côte d'Azur,Bouches-du-Rhône,1.808,1.876,,0.989,1.796,,43.617560128422,5.3077615094695,1
13770 Venelles,Provence-Alpes-Côte d'Azur,Bouches-du-Rhône,1.901,1.946,1.835,,1.8435000000000001,,43.588538342194994,5.47772577920205,2
13780 Cuges-les-Pins,Provence-Alpes-Côte d'Azur,Bouches-du-Rhône,1.879,1.909,,,1.859,,43.275638736124996,5.7160652979117,1
13783 Aubagne,Provence-Alpes-Côte d'Azur,Bouches-du-Rhône,1.85,1.84,,0.97,1.77,0.955,43.293,5.593,1
13790 Fuveau,Provence-Alpes-Côte d'Azur,Bouches-du-Rhône,2.044,2.114,,,2.014,1.083,43.463,5.574,1
13790 Rousset,Provence-Alpes-Côte d'Azur,Bouches-du-Rhône,1.955,2.06,,,1.935,1.038,43.469945749775,5.654644316320001,1
13800 Istres,Provence-Alpes-Côte d'Azur,Bouches-du-Rhône,1.839,1.8925,1.8706666666666667,,1.78,0.9039999999999999,43.50425,4.979,4
13850 Gréasque,Provence-Alpes-Côte d'Azur,Bouches-du-Rhône,1.899,1.959,,0.998,1.879,,43.436,5.54,1
13853 Aix-en-Provence,Provence-Alpes-Côte d'Azur,Bouches-du-Rhône,1.821,1.879,,0.994,1.792,0.914,43.484,5.383,1
13860 Peyrolles-en-Provence,Provence-Alpes-Côte d'Azur,Bouches-du-Rhône,1.929,1.998,1.969,1.149,1.899,,43.644,5.577,1
13870 Rognonas,Provence-Alpes-Côte d'Azur,Bouches-du-Rhône,1.87,1.859,1.86,,1.789,,43.899384999999995,4.7987,2
13880 Velaux,Provence-Alpes-Côte d'Azur,Bouches-du-Rhône,1.909,1.949,1.899,,1.859,,43.52675,5.24641,2
13890 Mouriès,Provence-Alpes-Côte d'Azur,Bouches-du-Rhône,1.849,,1.839,0.999,,,43.692,4.861,1
13910 Maillane,Provence-Alpes-Côte d'Azur,Bouches-du-Rhône,1.87,1.915,,,1.81,,43.832,4.787,1
13920 Saint-Mitre-les-Remparts,Provence-Alpes-Côte d'Azur,Bouches-du-Rhône,1.8603333333333332,1.943,1.979,,1.8856666666666666,,43.45532696283501,5.0148076905346,3
13990 Fontvieille,Provence-Alpes-Côte d'Azur,Bouches-du-Rhône,1.968,1.996,1.973,,,,43.727,4.712,1
14000 Caen,Normandie,Calvados,1.847375,1.9107142857142858,1.84925,0.9953333333333333,1.8515714285714286,0.9490000000000001,49.1898,-0.37106375,8
14100 Lisieux,Normandie,Calvados,1.899333333333333,1.9713333333333336,,1.073,1.8920000000000001,0.969,49.14015666666668,0.23750666666666667,3
14100 Ouilly-le-Vicomte,Normandie,Calvados,1.819,1.849,1.839,,1.799,,49.171,0.217,1
14100 Saint-Denis-de-Mailloc,Normandie,Calvados,,,,,,,49.087,0.313,1
14100 Saint-Désir,Normandie,Calvados,1.904,1.99,,,1.897,,49.138267,0.171897,1
14110 Condé-en-Normandie,Normandie,Calvados,1.8319999999999999,1.907,1.865,,1.822,1.038,48.8556371173495,-0.54041220957873,2
14111 Louvigny,Normandie,Calvados,1.869,1.899,,0.998,1.839,,49.161,-0.4,1
14112 Biéville-Beuville,Normandie,Calvados,1.868,1.923,1.899,,,,49.241,-0.327,1
14120 Mondeville,Normandie,Calvados,1.8453333333333333,1.9133333333333333,1.874,0.994,1.8436666666666666,,49.16952,-0.31869,3
14123 Cormelles-le-Royal,Normandie,Calvados,1.819,1.8785,1.899,,1.765,,49.15584858694,-0.320005078573615,2
14123 Fleury-sur-Orne,Normandie,Calvados,1.865,1.902,,,1.83,,49.147,-0.373,1
14123 Ifs,Normandie,Calvados,1.8439999999999999,1.9445000000000001,1.83,0.9796666666666667,1.83375,,49.147026034999996,-0.342816035,4
14130 Pont-l'Évêque,Normandie,Calvados,1.8465,1.91275,1.859,0.9964999999999999,1.841,,49.288601475,0.19554974750000004,4
14130 Saint-Gatien-des-Bois,Normandie,Calvados,1.912,1.99,,0.994,1.897,,49.369788938573,0.20111980321583,1
14140 Livarot-Pays-d'Auge,Normandie,Calvados,1.869,1.899,,,1.829,,49.00848,0.15134,1
14150 Ouistreham,Normandie,Calvados,1.899,1.979,,,1.899,,49.268884727564,-0.25802023527663,1
14160 Dives-sur-Mer,Normandie,Calvados,1.8896666666666668,1.9233333333333331,,0.994,1.8656666666666668,0.999,49.28339,-0.1042,3
14170 Saint-Pierre-en-Auge,Normandie,Calvados,1.884,1.9645000000000001,,0.979,1.8904999999999998,,49.02344,-0.026520000000000002,2
14200 Hérouville-Saint-Clair,Normandie,Calvados,1.8654,1.9338000000000002,1.9035000000000002,0.991,1.864,,49.203727954144796,-0.34039265944364805,5
14210 Évrecy,Normandie,Calvados,1.879,1.919,,,1.869,,49.10372,-0.50006,1
14220 Thury-Harcourt-le-Hom,Normandie,Calvados,1.8479999999999999,1.969,1.8984999999999999,1.049,1.858,,48.980000000000004,-0.476,2
14230 Isigny-sur-Mer,Normandie,Calvados,1.879,1.939,1.939,0.999,1.849,,49.315814599999996,-1.09994785,2
14240 Caumont-sur-Aure,Normandie,Calvados,1.875,1.899,,,1.855,,49.08893,-0.8136,1
14250 Tilly-sur-Seulles,Normandie,Calvados,1.888,,1.904,,,,49.17918,-0.62255,1
14260 Les Monts d'Aunay,Normandie,Calvados,1.852,1.908,,,1.839,,49.026,-0.632,1
14270 Mézidon Vallée d'Auge,Normandie,Calvados,1.869,1.935,1.913,,,,49.073,-0.074,1
14280 Saint-Contest,Normandie,Calvados,1.829,1.899,,0.998,1.819,,49.201,-0.398,1
14290 Orbec,Normandie,Calvados,1.889,1.909,,1.049,1.849,,49.0240085,0.408541,2
14310 Villers-Bocage,Normandie,Calvados,1.8643333333333334,1.9245,1.8565,,1.885,,49.07966666666667,-0.6476666666666667,3
14320 Saint-Martin-de-Fontenay,Normandie,Calvados,1.908,1.969,1.889,,1.927,,49.114464999999996,-0.37418,2
14330 Le Molay-Littry,Normandie,Calvados,1.799,1.869,,0.969,1.789,,49.248,-0.878,1
14350 Souleuvre en Bocage,Normandie,Calvados,1.969,1.99,,,1.937,,49.011,-0.852,1
14370 Argences,Normandie,Calvados,1.795,1.804,,,1.789,0.969,49.1192,-0.17523,1
14380 Noues de Sienne,Normandie,Calvados,1.9385,1.9975,1.9595,,,,48.84,-1.0474999999999999,2
14380 Tessy-Bocage,Normandie,Manche,1.99,1.99,,,1.99,,48.938,-1.033,1
14390 Cabourg,Normandie,Calvados,1.889,1.925,1.9,,,,49.28814,-0.12678,1
14400 Bayeux,Normandie,Calvados,1.82025,1.8835,,0.972,1.8135,0.869,49.27675000000001,-0.704,4
14400 Saint-Vigor-le-Grand,Normandie,Calvados,1.839,1.909,,0.998,1.829,,49.274,-0.685,1
14400 Vaucelles,Normandie,Calvados,1.817,1.909,,0.994,1.829,0.899,49.2849,-0.7357,1
14410 Valdallière,Normandie,Calvados,1.853,,1.925,,1.839,,48.84251,-0.71187,1
14420 Potigny,Normandie,Calvados,1.866,1.898,1.878,,,,48.9719687,-0.24749459999999998,1
14430 Dozulé,Normandie,Calvados,1.789,1.885,1.805,,,,49.231,-0.044,1
14440 Douvres-la-Délivrande,Normandie,Calvados,1.8744999999999998,1.889,1.859,,1.914,,49.294405,-0.380195,2
14450 Grandcamp-Maisy,Normandie,Calvados,1.859,,1.879,,1.839,,49.385,-1.05,1
14460 Colombelles,Normandie,Calvados,1.839,,1.859,,1.819,0.989,49.19,-0.299,1
14470 Courseulles-sur-Mer,Normandie,Calvados,1.9015,1.901,,0.985,1.8864999999999998,,49.323355,-0.45449,2
14480 Creully sur Seulles,Normandie,Calvados,1.869,1.899,,,1.839,,49.28,-0.535,1
14500 Vire Normandie,Normandie,Calvados,1.8719999999999999,1.9193333333333333,1.909,0.95,1.8519999999999999,0.88,48.849740000000004,-0.883644,5
14520 Aure sur Mer,Normandie,Calvados,1.98,,1.98,,,,49.34761,-0.80672,1
14520 Port-en-Bessin-Huppain,Normandie,Calvados,1.819,1.879,,,1.799,,49.34231,-0.75209000000004,1
14540 Soliers,Normandie,Calvados,1.849,,1.899,,,,49.1401163603,-0.300508505075,1
14550 Blainville-sur-Orne,Normandie,Calvados,1.823,1.844,,0.95,1.78,,49.232,-0.293,1
14600 Honfleur,Normandie,Calvados,1.8054999999999999,1.8735,,0.994,1.8,0.979,49.414784999999995,0.25468,2
14600 Équemauville,Normandie,Calvados,1.821,1.873,,0.998,1.806,,49.397,0.211,1
14640 Auberville,Normandie,Calvados,1.99,,1.99,,,,49.307,-0.027,1
14670 Troarn,Normandie,Calvados,1.799,1.885,1.805,,1.739,,49.182,-0.182,1
14680 Bretteville-sur-Laize,Normandie,Calvados,1.842,1.889,,0.999,1.819,,49.04543,-0.3238,1
14700 Falaise,Normandie,Calvados,1.9024999999999999,2.0066666666666664,1.8635,0.946,1.8885,0.975,48.89420773488,-0.1943498665856,5
14710 Trévières,Normandie,Calvados,1.918,,1.949,,,,49.314,-0.906,1
14730 Giberville,Normandie,Calvados,1.9769999999999999,2.0205,,,1.9475,1.0845,49.167108999999996,-0.27890905,2
14740 Thue et Mue,Normandie,Calvados,1.839,1.879,1.849,0.999,1.799,,49.215424329864,-0.50491688137538,1
14760 Bretteville-sur-Odon,Normandie,Calvados,1.819,1.899,,0.994,1.812,,49.16575,-0.41597,1
14780 Lion-sur-Mer,Normandie,Calvados,1.899,,1.889,,,,49.30174,-0.31818,1
14790 Verson,Normandie,Calvados,1.93,1.99,,,1.934,,49.156,-0.45,1
14800 Deauville,Normandie,Calvados,2.026,2.106,,,2.047,,49.356,0.071,1
14800 Touques,Normandie,Calvados,1.788,1.854,1.794,,1.788,,49.348615,0.09272,2
14800 Tourgéville,Normandie,Calvados,1.927,1.99,,1.079,1.934,,49.35124,0.0573,1
14880 Colleville-Montgomery,Normandie,Calvados,1.865,1.9,,,1.83,,49.29,-0.284,1
14880 Hermanville-sur-Mer,Normandie,Calvados,1.99,,1.99,,,,49.277,-0.318,1
14920 Mathieu,Normandie,Calvados,1.823,1.925,,,1.845,,49.242,-0.372,1
14960 Asnelles,Normandie,Calvados,1.879,1.909,,,1.859,,49.339,-0.58,1
14970 Saint-Aubin-d'Arquenay,Normandie,Calvados,,,,,,,49.26294216,-0.28047954,1
14980 Rots,Normandie,Calvados,1.8639999999999999,1.939,,,1.854,0.999,49.1988693337965,-0.459996383147475,2
14990 Bernières-sur-Mer,Normandie,Calvados,1.849,1.899,,,1.829,,49.334,-0.413,1
15000 Aurillac,Auvergne-Rhône-Alpes,Cantal,1.8605833333333335,1.892125,1.8713333333333333,0.9987999999999999,1.7807142857142857,1.0145,44.91640648224916,2.4373038063015,13
15100 Andelat,Auvergne-Rhône-Alpes,Cantal,1.829,1.909,1.819,0.99,1.789,0.959,45.038,3.065,1
15100 Saint-Flour,Auvergne-Rhône-Alpes,Cantal,1.87975,1.949,1.9013333333333335,1.075,1.832,,45.03410926,3.0938308,5
15100 Saint-Georges,Auvergne-Rhône-Alpes,Cantal,1.838,,1.814,0.973,1.7845,0.928,45.032017499999995,3.1327059999999998,2
15110 Chaudes-Aigues,Auvergne-Rhône-Alpes,Cantal,1.9545,,1.9745,,,,44.856503333333336,3.0073333333333334,3
15130 Lafeuillade-en-Vézie,Auvergne-Rhône-Alpes,Cantal,1.99,1.99,,,1.99,,44.788,2.456,1
15190 Condat,Auvergne-Rhône-Alpes,Cantal,1.999,2.1095,2.049,,,,45.33877,2.7635899999999998,2
15190 Marcenat,Auvergne-Rhône-Alpes,Cantal,1.919,1.989,,0.999,1.949,,45.303141500363,2.8327425989774997,1
15200 Mauriac,Auvergne-Rhône-Alpes,Cantal,1.861,1.904,1.849,1.045,1.7919999999999998,1.025,45.218,2.343,2
15210 Ydes,Auvergne-Rhône-Alpes,Cantal,1.876,1.949,,1.019,1.835,,45.34,2.434,1
15220 Saint-Mamet-la-Salvetat,Auvergne-Rhône-Alpes,Cantal,1.99,1.99,1.99,,,,44.859,2.292,1
15230 Pierrefort,Auvergne-Rhône-Alpes,Cantal,1.919,1.989,1.959,,,,44.921,2.839,1
15250 Jussac,Auvergne-Rhône-Alpes,Cantal,1.9195,,1.8944999999999999,,1.79,,44.991225,2.4191900000000004,2
15250 Saint-Paul-des-Landes,Auvergne-Rhône-Alpes,Cantal,1.911,1.999,1.908,,,,44.941241855,2.3176640949999996,2
15290 Le Rouget-Pers,Auvergne-Rhône-Alpes,Cantal,1.887,1.935,,,1.855,,44.855,2.233,1
15300 Murat,Auvergne-Rhône-Alpes,Cantal,1.9263333333333332,1.929,1.99,,1.859,,45.10739749999999,2.8671699999999998,4
15300 Ussel,Auvergne-Rhône-Alpes,Cantal,1.89,,1.95,,,,45.079,2.937,1
15310 Saint-Cernin,Auvergne-Rhône-Alpes,Cantal,2.02,2.12,2.1,,,,45.057,2.422,1
15320 Ruynes-en-Margeride,Auvergne-Rhône-Alpes,Cantal,1.902,1.989,1.853,,,,45.001480300000004,3.2236776000000003,1
15400 Riom-ès-Montagnes,Auvergne-Rhône-Alpes,Cantal,1.9296666666666666,1.9595,1.95,,1.829,,45.28375666666667,2.6646433333333337,3
15500 Massiac,Auvergne-Rhône-Alpes,Cantal,1.902,1.9064999999999999,1.8790000000000002,,1.859,,45.258,3.198333333333333,3
15600 Maurs,Auvergne-Rhône-Alpes,Cantal,1.99,1.99,,,1.945,1.047,44.7065,2.19514,1
15600 Saint-Étienne-de-Maurs,Auvergne-Rhône-Alpes,Cantal,1.783,1.816,,0.999,1.73,,44.714,2.203,1
15700 Pleaux,Auvergne-Rhône-Alpes,Cantal,1.954,2.01,1.848,,1.874,,45.133232455,2.221322165,2
15800 Thiézac,Auvergne-Rhône-Alpes,Cantal,1.94,,1.94,,,,45.016,2.664,1
15800 Vic-sur-Cère,Auvergne-Rhône-Alpes,Cantal,1.9275,1.9415,1.99,0.998,1.81,,44.975225094093,2.619104247392567,3
16000 Angoulême,Nouvelle-Aquitaine,Charente,1.8405999999999998,1.8974,1.815,0.972,1.833,,45.650736,0.154652,5
16100 Châteaubernard,Nouvelle-Aquitaine,Charente,1.817,1.87,,,1.79,0.938,45.68397,-0.30463,1
16100 Cognac,Nouvelle-Aquitaine,Charente,1.8472000000000002,1.8882,1.8525,0.994,1.82025,0.897,45.691602904079396,-0.326261503635636,5
16110 La Rochefoucauld-en-Angoumois,Nouvelle-Aquitaine,Charente,1.9353333333333333,1.959,2.0895,0.933,1.777,,45.74131333333333,0.3864166666666667,3
16110 Rivières,Nouvelle-Aquitaine,Charente,1.879,1.949,1.889,,,,45.74695,0.38339,1
16120 Châteauneuf-sur-Charente,Nouvelle-Aquitaine,Charente,1.854,1.904,1.919,,1.834,,45.594424402344,-0.051492013094111,2
16130 Segonzac,Nouvelle-Aquitaine,Charente,1.9,1.95,,,1.87,,45.61787,-0.21934,1
16140 Aigre,Nouvelle-Aquitaine,Charente,1.848,1.899,1.868,,,,45.899920641752,0.014846175679999999,1
16150 Chabanais,Nouvelle-Aquitaine,Charente,1.91,1.895,,1.082,1.805,,45.878,0.726,1
16150 Exideuil-sur-Vienne,Nouvelle-Aquitaine,Charente,1.99,,1.99,,,,45.87221560482,0.68209246867894,1
16150 Étagnac,Nouvelle-Aquitaine,Charente,,,,,,,45.8940820321,0.7899497856259999,1
16160 Gond-Pontouvre,Nouvelle-Aquitaine,Charente,1.885,1.944,,1.142,1.895,1.017,45.682671292636996,0.17728895022000002,1
16170 Rouillac,Nouvelle-Aquitaine,Charente,1.818,1.9,,1.016,1.824,,45.777,-0.061,1
16190 Montmoreau,Nouvelle-Aquitaine,Charente,1.831,1.899,,,1.817,,45.40063,0.1304,1
16200 Jarnac,Nouvelle-Aquitaine,Charente,1.811,1.8726666666666667,,0.993,1.8056666666666665,,45.68468525353825,-0.166234076204835,4
16210 Chalais,Nouvelle-Aquitaine,Charente,1.832,1.873,,0.998,1.816,,45.273,0.042,1
16220 Montbron,Nouvelle-Aquitaine,Charente,1.859,,1.889,,1.849,,45.665,0.501,1
16230 Mansle,Nouvelle-Aquitaine,Charente,1.862,1.9180000000000001,,1.232,1.852,,45.8735,0.177,2
16250 Pérignac,Nouvelle-Aquitaine,Charente,1.979,2.099,,,1.999,,45.47271338,0.048103320000000005,1
16260 Chasseneuil-sur-Bonnieure,Nouvelle-Aquitaine,Charente,1.879,1.9344999999999999,,,1.883,,45.821,0.4485,2
16270 Terres-de-Haute-Charente,Nouvelle-Aquitaine,Charente,1.859,1.879,,0.998,1.829,,45.88341,0.57892,2
16300 Barbezieux-Saint-Hilaire,Nouvelle-Aquitaine,Charente,1.829,1.8826666666666665,,0.964,1.7990000000000002,0.88,45.464346666666664,-0.15739666666666666,3
16320 Villebois-Lavalette,Nouvelle-Aquitaine,Charente,1.783,1.822,,0.999,1.759,,45.482,0.278,1
16320 Édon,Nouvelle-Aquitaine,Charente,1.949,1.999,,,1.895,,45.489,0.363,1
16330 Saint-Amant-de-Boixe,Nouvelle-Aquitaine,Charente,1.849,,1.879,,1.849,,45.804,0.14,1
16340 L'Isle-d'Espagnac,Nouvelle-Aquitaine,Charente,1.869,1.959,,,1.859,,45.665,0.201,1
16350 Champagne-Mouton,Nouvelle-Aquitaine,Charente,1.866,,1.901,,1.859,,45.989,0.407,1
16360 Reignac,Nouvelle-Aquitaine,Charente,1.879,,1.918,,,,45.425820487558006,-0.1727259261077,1
16360 Touvérac,Nouvelle-Aquitaine,Charente,1.892,1.94,,,1.876,,45.385,-0.23,1
16400 La Couronne,Nouvelle-Aquitaine,Charente,1.845,1.876,,,1.793,0.949,45.613558999999995,0.097911,2
16430 Champniers,Nouvelle-Aquitaine,Charente,1.8193333333333335,1.906,1.839,0.9764999999999999,1.8073333333333332,,45.699666666666666,0.19133333333333336,3
16500 Ansac-sur-Vienne,Nouvelle-Aquitaine,Charente,1.999,2.089,,,1.949,,45.989273646187,0.6153042573943,1
16500 Confolens,Nouvelle-Aquitaine,Charente,1.829,1.879,,0.998,1.819,,46.010359339551,0.66476632806397,2
16600 Ruelle-sur-Touvre,Nouvelle-Aquitaine,Charente,1.799,1.869,1.839,,,,45.68019,0.21081,1
16700 Courcôme,Nouvelle-Aquitaine,Charente,1.999,2.019,,1.01,1.969,,45.985463882983,0.20048889066011,1
16700 La Faye,Nouvelle-Aquitaine,Charente,2.018,2.172,,,2.052,,46.019,0.184,1
16700 Ruffec,Nouvelle-Aquitaine,Charente,1.786,1.868,1.823,0.931,1.799,0.989,46.026268021250004,0.1968792971985,2
16710 Saint-Yrieix-sur-Charente,Nouvelle-Aquitaine,Charente,1.839,1.86,,,1.8,,45.69,0.115,1
16730 Fléac,Nouvelle-Aquitaine,Charente,2.059,,2.04,,,,45.6649544085,0.0916380960888,1
16730 Linars,Nouvelle-Aquitaine,Charente,1.869,1.889,,,1.829,,45.655,0.085,1
16800 Soyaux,Nouvelle-Aquitaine,Charente,1.789,1.893,1.872,0.977,1.832,,45.639,0.219,1
17000 La Rochelle,Nouvelle-Aquitaine,Charente-Maritime,1.8664,1.9414000000000002,,0.9893333333333333,1.8616,,46.165,-1.1662,5
17100 Saintes,Nouvelle-Aquitaine,Charente-Maritime,1.8253333333333335,1.90175,,0.96,1.8179999999999998,0.99,45.740517360837885,-0.6386087067704544,9
17110 Saint-Georges-de-Didonne,Nouvelle-Aquitaine,Charente-Maritime,1.839,1.899,,0.999,1.809,,45.612,-0.991,1
17120 Boutenac-Touvent,Nouvelle-Aquitaine,Charente-Maritime,1.99,2.1,2.098,,,,45.506,-0.757,1
17120 Cozes,Nouvelle-Aquitaine,Charente-Maritime,1.839,1.899,,0.959,1.822,,45.585,-0.835,1
17120 Semussac,Nouvelle-Aquitaine,Charente-Maritime,1.798,1.854,,,1.776,,45.604,-0.914,1
17130 Montendre,Nouvelle-Aquitaine,Charente-Maritime,1.8936666666666666,1.9226666666666665,,0.998,1.857,,45.285692898341004,-0.39899107738336004,3
17132 Meschers-sur-Gironde,Nouvelle-Aquitaine,Charente-Maritime,1.84,1.855,,,1.77,,45.559,-0.954,1
17137 Nieul-sur-Mer,Nouvelle-Aquitaine,Charente-Maritime,1.8735,1.845,1.893,,1.764,,46.200325,-1.16617,2
17138 Puilboreau,Nouvelle-Aquitaine,Charente-Maritime,1.7976666666666665,1.8683333333333332,,0.9435,1.797,0.945,46.175882002033326,-1.1078627728166666,3
17138 Saint-Xandre,Nouvelle-Aquitaine,Charente-Maritime,1.83,1.87,1.85,,,,46.206,-1.094,1
17139 Dompierre-sur-Mer,Nouvelle-Aquitaine,Charente-Maritime,1.779,1.849,1.825,,,,46.189331689999996,-1.0693078599999999,1
17140 Lagord,Nouvelle-Aquitaine,Charente-Maritime,1.767,1.845,1.805,,1.763,,46.1739427831,-1.16766879889,1
17150 Mirambeau,Nouvelle-Aquitaine,Charente-Maritime,1.799,1.879,,0.999,1.809,,45.378,-0.57,1
17160 Blanzac-lès-Matha,Nouvelle-Aquitaine,Charente-Maritime,1.879,1.909,1.849,,,,45.869334256569,-0.32780917245505,1
17160 Matha,Nouvelle-Aquitaine,Charente-Maritime,1.8485,1.8805,,,1.8094999999999999,,45.870675,-0.311695,2
17170 Saint-Sauveur-d'Aunis,Nouvelle-Aquitaine,Charente-Maritime,1.853,1.899,1.872,,,1.047,46.2265632575,-0.8715297856259999,1
17200 Royan,Nouvelle-Aquitaine,Charente-Maritime,1.846,1.9195999999999998,,0.9664999999999999,1.8122500000000001,0.849,45.631413844899996,-1.0171191832438,5
17200 Saint-Sulpice-de-Royan,Nouvelle-Aquitaine,Charente-Maritime,1.842,1.891,,,1.829,,45.669,-1.01,1
17210 Bedenac,Nouvelle-Aquitaine,Charente-Maritime,2.0149999999999997,2.0564999999999998,,1.148,1.9545,0.987,45.1730447161455,-0.33323696957886995,2
17210 Chevanceaux,Nouvelle-Aquitaine,Charente-Maritime,1.89,1.93,,,1.9,,45.2935182,-0.23916880000000001,1
17220 La Jarrie,Nouvelle-Aquitaine,Charente-Maritime,1.818,1.867,,0.998,1.807,0.945,46.129,-1.007,1
17220 Saint-Rogatien,Nouvelle-Aquitaine,Charente-Maritime,1.809,1.859,,,1.799,,46.1505429,-1.0765411900000001,1
17220 Salles-sur-Mer,Nouvelle-Aquitaine,Charente-Maritime,1.811,1.868,,,1.807,,46.084,-1.074,1
17230 Marans,Nouvelle-Aquitaine,Charente-Maritime,1.814,1.8835,1.87,,1.8119999999999998,,46.30715567045,-0.988412975978,2
17240 Saint-Genis-de-Saintonge,Nouvelle-Aquitaine,Charente-Maritime,1.829,1.959,,0.994,1.849,,45.489,-0.566,1
17250 Pont-l'Abbé-d'Arnoult,Nouvelle-Aquitaine,Charente-Maritime,1.839,1.879,1.859,,,,45.83,-0.877,1
17250 Saint-Porchaire,Nouvelle-Aquitaine,Charente-Maritime,1.852,1.882,,,1.819,,45.814,-0.774,1
17260 Gémozac,Nouvelle-Aquitaine,Charente-Maritime,1.799,1.879,,0.979,1.799,,45.5758956035,-0.67761639667,1
17270 Montguyon,Nouvelle-Aquitaine,Charente-Maritime,1.839,1.879,,0.998,1.809,,45.2121397979,-0.177197722832,1
17290 Aigrefeuille-d'Aunis,Nouvelle-Aquitaine,Charente-Maritime,1.8975,1.869,1.99,0.998,1.805,,46.11662,-0.9347650000000001,2
17300 Rochefort,Nouvelle-Aquitaine,Charente-Maritime,1.8516666666666666,1.9076666666666666,,0.994,1.8336666666666666,1.05,45.944586332233335,-0.9705922387779999,3
17310 Saint-Pierre-d'Oléron,Nouvelle-Aquitaine,Charente-Maritime,1.8486666666666665,1.88,1.802,0.9275,1.779,,45.939150000000005,-1.3097333333333332,3
17320 Marennes-Hiers-Brouage,Nouvelle-Aquitaine,Charente-Maritime,1.829,1.8923333333333332,1.859,0.988,1.829,,45.82737057666666,-1.1083244333333333,3
17330 Villeneuve-la-Comtesse,Nouvelle-Aquitaine,Charente-Maritime,1.99,,2.08,,,,46.09855,-0.50192,1
17350 Fenioux,Nouvelle-Aquitaine,Charente-Maritime,2.107,2.234,,1.194,2.109,1.149,45.89351437443,-0.603746141307095,2
17350 Saint-Savinien,Nouvelle-Aquitaine,Charente-Maritime,1.853,1.892,,,1.839,,45.869555,-0.6657200000000001,2
17360 Saint-Aigulin,Nouvelle-Aquitaine,Charente-Maritime,1.845,1.929,,,,,45.159,-0.019,1
17390 La Tremblade,Nouvelle-Aquitaine,Charente-Maritime,1.829,1.849,,0.998,1.799,,45.76,-1.129,1
17400 Saint-Jean-d'Angély,Nouvelle-Aquitaine,Charente-Maritime,1.8663333333333334,1.9556666666666667,1.939,1.249,1.8616666666666666,1.0625,45.94228999999999,-0.5206366666666667,3
17410 Saint-Martin-de-Ré,Nouvelle-Aquitaine,Charente-Maritime,1.7625,1.8225,1.792,0.998,1.7645,,46.198170000000005,-1.35458,2
17420 Saint-Palais-sur-Mer,Nouvelle-Aquitaine,Charente-Maritime,1.845,1.914,,,1.83,,45.651,-1.085,1
17430 Tonnay-Charente,Nouvelle-Aquitaine,Charente-Maritime,1.819,1.885,,0.994,1.8115,0.999,45.947990335200004,-0.9077211068465,2
17440 Aytré,Nouvelle-Aquitaine,Charente-Maritime,1.943,1.99,,,1.91,,46.131,-1.099,1
17440 La Rochelle,Nouvelle-Aquitaine,Charente-Maritime,1.851,1.911,1.889,,,,46.1386,-1.13925,1
17450 Fouras,Nouvelle-Aquitaine,Charente-Maritime,1.829,1.897,,0.959,1.809,,45.99074,-1.0762,1
17470 Aulnay,Nouvelle-Aquitaine,Charente-Maritime,1.811,1.867,,,1.806,,46.029,-0.351,1
17480 Le Château-d'Oléron,Nouvelle-Aquitaine,Charente-Maritime,1.777,1.801,1.802,0.926,,,45.879273256827,-1.2196129659261,1
17500 Jonzac,Nouvelle-Aquitaine,Charente-Maritime,1.795,1.8625,,0.9735,1.7879999999999998,0.93,45.44673205,-0.44621865,2
17520 Archiac,Nouvelle-Aquitaine,Charente-Maritime,1.929,2.029,1.994,,,,45.528,-0.304,1
17520 Jarnac-Champagne,Nouvelle-Aquitaine,Charente-Maritime,1.96,1.99,,,,,45.558484299999996,-0.4019304,1
17530 Arvert,Nouvelle-Aquitaine,Charente-Maritime,1.829,1.849,,,1.799,0.999,45.74928731835,-1.13054165875,2
17540 Angliers,Nouvelle-Aquitaine,Charente-Maritime,1.87,1.99,1.99,,,,46.2129641345,-0.9541196059763399,1
17550 Dolus-d'Oléron,Nouvelle-Aquitaine,Charente-Maritime,1.84,1.86,,,1.819,,45.9046154635,-1.2588914413299999,1
17570 Les Mathes,Nouvelle-Aquitaine,Charente-Maritime,1.99,1.99,1.99,,,,45.687,-1.171,1
17580 Le Bois-Plage-en-Ré,Nouvelle-Aquitaine,Charente-Maritime,1.959,1.99,1.975,,,,46.177710860263,-1.3721589695779002,1
17590 Ars-en-Ré,Nouvelle-Aquitaine,Charente-Maritime,1.789,1.839,1.804,,,,46.204,-1.512,1
17600 Corme-Royal,Nouvelle-Aquitaine,Charente-Maritime,1.88,,1.97,,,,45.74625835,-0.81248551349124,1
17600 Médis,Nouvelle-Aquitaine,Charente-Maritime,1.786,,1.825,,1.782,,45.6656317,-0.943392,1
17600 Saujon,Nouvelle-Aquitaine,Charente-Maritime,1.8025,1.869,,0.998,1.789,,45.676500000000004,-0.9295,2
17610 Chaniers,Nouvelle-Aquitaine,Charente-Maritime,,,,,,,45.745,-0.562,1
17620 Échillais,Nouvelle-Aquitaine,Charente-Maritime,1.798,1.869,,0.989,1.798,,45.90695,-0.96161,1
17630 La Flotte,Nouvelle-Aquitaine,Charente-Maritime,1.775,1.828,1.804,,1.745,,46.179,-1.328,1
17640 Vaux-sur-Mer,Nouvelle-Aquitaine,Charente-Maritime,1.8559999999999999,1.923,1.866,0.998,1.8315000000000001,,45.6420465,-1.0562629499999998,2
17690 Angoulins,Nouvelle-Aquitaine,Charente-Maritime,1.8253333333333333,1.8886666666666667,1.85,1.0659999999999998,1.8256666666666668,0.917,46.104911300699996,-1.0965557150266667,3
17700 Surgères,Nouvelle-Aquitaine,Charente-Maritime,1.84425,1.8616666666666666,1.99,0.96,1.7843333333333333,0.912,46.10817,-0.7538174999999975,4
17740 Sainte-Marie-de-Ré,Nouvelle-Aquitaine,Charente-Maritime,1.952,1.986,,,1.876,,46.158,-1.324,1
17770 Burie,Nouvelle-Aquitaine,Charente-Maritime,1.879,1.921,1.899,,,,45.77508103751399,-0.42216137321515,1
17780 Soubise,Nouvelle-Aquitaine,Charente-Maritime,1.799,,,,1.799,,45.921,-1.003,1
17800 Pons,Nouvelle-Aquitaine,Charente-Maritime,1.777,1.853,,0.928,1.771,,45.579,-0.558,1
17800 Saint-Léger,Nouvelle-Aquitaine,Charente-Maritime,2.3115,2.4165,,,2.2865,1.149,45.611000000000004,-0.6005,2
17920 Breuillet,Nouvelle-Aquitaine,Charente-Maritime,1.899,2.021,,,2.007,0.987,45.699,-1.053,1
18000 Bourges,Centre-Val de Loire,Cher,1.871,1.9449090909090907,1.93975,0.996,1.8536666666666666,1.034,47.07724161167327,2.391105455213272,11
18100 Vierzon,Centre-Val de Loire,Cher,1.8418571428571429,1.9006666666666667,1.8499999999999999,1.0,1.8151666666666666,0.9884999999999999,47.223055024828,2.078369171769457,7
18110 Saint-Martin-d'Auxigny,Centre-Val de Loire,Cher,1.899,1.945,1.905,,,,47.210547849899996,2.42521747273,1
18130 Dun-sur-Auron,Centre-Val de Loire,Cher,1.913,1.9980000000000002,1.979,,1.857,,46.887,2.569,2
18140 Sancergues,Centre-Val de Loire,Cher,1.998,2.104,2.049,,,,47.156,2.912,1
18150 La Guerche-sur-l'Aubois,Centre-Val de Loire,Cher,1.875,1.909,1.889,,,,46.951,2.949,1
18160 Lignières,Centre-Val de Loire,Cher,1.875,1.889,1.869,,1.827,,46.753,2.169,1
18170 Le Châtelet,Centre-Val de Loire,Cher,1.9,1.979,1.915,,,,46.642,2.284,1
18190 Châteauneuf-sur-Cher,Centre-Val de Loire,Cher,1.869,,1.879,,1.839,,46.86,2.328,1
18200 Bruère-Allichamps,Centre-Val de Loire,Cher,1.849,1.899,1.849,,,,46.737568082299994,2.46095792922,1
18200 Farges-Allichamps,Centre-Val de Loire,Cher,2.044,2.164,,,2.054,1.054,46.752,2.416,1
18200 Orval,Centre-Val de Loire,Cher,1.859,,,0.998,1.849,,46.724,2.461,1
18200 Saint-Amand-Montrond,Centre-Val de Loire,Cher,1.875,1.879,1.896,,1.839,,46.728,2.5086666666666666,3
18220 Les Aix-d'Angillon,Centre-Val de Loire,Cher,1.889,1.989,,1.009,1.859,,47.195403353380996,2.5666948514844,1
18230 Saint-Doulchard,Centre-Val de Loire,Cher,1.7965,1.8745,,,1.797,0.939,47.1165,2.374,2
18240 Belleville-sur-Loire,Centre-Val de Loire,Cher,1.886,1.96,,,1.876,,47.505,2.852,1
18240 Boulleret,Centre-Val de Loire,Cher,1.91,,,1.16,1.89,,47.421,2.884,1
18250 Henrichemont,Centre-Val de Loire,Cher,1.849,1.889,,,1.829,,47.3,2.517,1
18300 Bué,Centre-Val de Loire,Cher,,,,,,,47.30227,2.79561,1
18300 Saint-Satur,Centre-Val de Loire,Cher,1.859,,,1.059,1.839,,47.334,2.856,1
18300 Sancerre,Centre-Val de Loire,Cher,1.9745,2.022,2.0,,1.88,,47.329379720000006,2.828039335,2
18330 Neuvy-sur-Barangeon,Centre-Val de Loire,Cher,2.005,2.006,1.986,,,,47.31545,2.25574,1
18350 Blet,Centre-Val de Loire,Cher,1.99,,1.99,,,,46.896,2.729,1
18350 Nérondes,Centre-Val de Loire,Cher,1.859,1.899,,,1.839,,46.998,2.818,1
18370 Châteaumeillant,Centre-Val de Loire,Cher,1.869,1.939,,0.998,1.839,,46.555,2.201,1
18390 Bourges,Centre-Val de Loire,Cher,1.85,1.909,1.907,,,0.9,47.095589154531,2.4407317790985,1
18390 Saint-Germain-du-Puy,Centre-Val de Loire,Cher,1.879,,,0.998,1.829,,47.099,2.489,1
18400 Saint-Florent-sur-Cher,Centre-Val de Loire,Cher,1.839,1.899,1.859,1.008,1.809,,47.0005,2.258,2
18410 Argent-sur-Sauldre,Centre-Val de Loire,Cher,1.846,1.917,,,1.835,,47.549,2.448,1
18500 Marmagne,Centre-Val de Loire,Cher,2.0715000000000003,2.1765,,,2.0715000000000003,1.149,47.095,2.2415000000000003,2
18500 Mehun-sur-Yèvre,Centre-Val de Loire,Cher,1.8635,1.87,1.839,0.998,1.833,,47.14608065,2.22918675,2
18520 Avord,Centre-Val de Loire,Cher,1.869,1.918,,0.998,1.835,,47.032,2.642,1
18570 La Chapelle-Saint-Ursin,Centre-Val de Loire,Cher,1.899,1.949,1.939,,,,47.063,2.324,1
18600 Sancoins,Centre-Val de Loire,Cher,1.9245,1.9645000000000001,1.9495,,,,46.8345,2.926,2
18700 Aubigny-sur-Nère,Centre-Val de Loire,Cher,1.8475000000000001,1.884,1.8094999999999999,0.998,1.829,,47.4865,2.432,2
18800 Baugy,Centre-Val de Loire,Cher,1.949,1.999,1.979,,,,47.082,2.729,1
19000 Tulle,Nouvelle-Aquitaine,Corrèze,1.8706666666666667,1.929,1.828,0.998,1.8526666666666667,,45.269107310200006,1.7633341636900002,4
19100 Brive-la-Gaillarde,Nouvelle-Aquitaine,Corrèze,1.854625,1.9325714285714286,1.8653333333333333,0.994,1.853,1.004,45.15883875000001,1.5196124999999998,8
19100 Malemort,Nouvelle-Aquitaine,Corrèze,1.899,,1.858,0.998,1.873,,45.158,1.563,1
19110 Bort-les-Orgues,Nouvelle-Aquitaine,Corrèze,1.859,1.919,,1.035,1.819,,45.4041032586,2.4999235676100002,1
19120 Altillac,Nouvelle-Aquitaine,Corrèze,1.786,,1.802,,1.762,,44.973,1.849,1
19130 Objat,Nouvelle-Aquitaine,Corrèze,1.8010000000000002,1.9303333333333335,1.879,,1.839,,45.24933333333333,1.4136666666666668,3
19130 Saint-Aulaire,Nouvelle-Aquitaine,Corrèze,1.892,1.937,1.898,,1.874,,45.23073,1.37255,1
19140 Uzerche,Nouvelle-Aquitaine,Corrèze,1.8556666666666668,1.8973333333333333,1.889,1.032,1.8243333333333334,,45.427453333333325,1.5688633333333335,3
19150 Laguenne-sur-Avalouze,Nouvelle-Aquitaine,Corrèze,1.829,1.879,1.859,0.999,,1.099,45.246629999999996,1.772675,2
19160 Neuvic,Nouvelle-Aquitaine,Corrèze,1.899,1.948,,,1.894,,45.384,2.269,1
19170 Bugeat,Nouvelle-Aquitaine,Corrèze,1.99,,1.988,,,,45.59855,1.92571,1
19190 Beynat,Nouvelle-Aquitaine,Corrèze,1.879,1.929,1.889,,,,45.125542413999995,1.7225066547599999,1
19190 Le Pescher,Nouvelle-Aquitaine,Corrèze,1.962,1.99,,,,,45.071202,1.737681,1
19200 Ussel,Nouvelle-Aquitaine,Corrèze,1.90425,1.8515000000000001,1.9463333333333335,1.1155,1.7785,,45.552784935050255,2.3076830006784,4
19210 Lubersac,Nouvelle-Aquitaine,Corrèze,1.845,1.895,1.855,,1.815,,45.438,1.397,1
19230 Saint-Sornin-Lavolps,Nouvelle-Aquitaine,Corrèze,1.839,1.889,,0.999,1.829,,45.393,1.377,1
19240 Allassac,Nouvelle-Aquitaine,Corrèze,1.886,1.928,,0.998,1.869,,45.253,1.461,1
19240 Varetz,Nouvelle-Aquitaine,Corrèze,1.918,1.938,1.908,,,,45.19264,1.45208,1
19250 Meymac,Nouvelle-Aquitaine,Corrèze,1.9293333333333333,1.919,1.9295,,1.842,,45.53729666666667,2.1421333333333332,3
19260 Treignac,Nouvelle-Aquitaine,Corrèze,1.86,1.89,,0.998,1.832,,45.533,1.804,1
19270 Donzenac,Nouvelle-Aquitaine,Corrèze,1.859,1.919,,,1.859,,45.219,1.521,1
19270 Saint-Pardoux-l'Ortigier,Nouvelle-Aquitaine,Corrèze,1.99,1.99,1.99,,,,45.310634037541,1.5625461874608,1
19270 Ussac,Nouvelle-Aquitaine,Corrèze,1.869,1.929,,,1.859,,45.195,1.542,1
19290 Sornac,Nouvelle-Aquitaine,Corrèze,1.875,,1.874,,,,45.661,2.202,1
19300 Égletons,Nouvelle-Aquitaine,Corrèze,1.8843333333333334,1.9395,,1.029,1.8556666666666668,,45.40064666666667,2.0402666666666667,3
19330 Favars,Nouvelle-Aquitaine,Corrèze,1.845,1.989,,1.319,,,45.26712,1.6793,1
19330 Saint-Mexant,Nouvelle-Aquitaine,Corrèze,1.849,1.919,,,1.839,,45.28398,1.65828,1
19340 Eygurande,Nouvelle-Aquitaine,Corrèze,1.9,1.92,1.92,,,,45.654785000000004,2.448575,2
19340 Messeix,Auvergne-Rhône-Alpes,Puy-de-Dôme,2.07,2.18,,,2.08,1.06,45.624,2.481,1
19350 Chabrignac,Nouvelle-Aquitaine,Corrèze,1.859,1.962,,,1.861,,45.32,1.327,1
19360 Cosnac,Nouvelle-Aquitaine,Corrèze,1.98,2.05,,,1.97,,45.135,1.584,1
19360 Malemort,Nouvelle-Aquitaine,Corrèze,1.831,1.881,,,1.814,,45.168,1.561,1
19400 Argentat-sur-Dordogne,Nouvelle-Aquitaine,Corrèze,1.905,1.9645000000000001,,1.14,1.8615,,45.092295,1.938755,2
19460 Naves,Nouvelle-Aquitaine,Corrèze,1.849,1.905,,0.994,1.834,,45.316,1.77,1
19490 Sainte-Fortunade,Nouvelle-Aquitaine,Corrèze,1.942,1.99,,,1.934,,45.196,1.774,1
19500 Collonges-la-Rouge,Nouvelle-Aquitaine,Corrèze,1.898,1.953,,,1.876,,45.056,1.669,1
19510 Masseret,Nouvelle-Aquitaine,Corrèze,1.99,1.99,,1.259,1.99,1.054,45.54068,1.52039,1
19600 Cressensac-Sarrazac,Occitanie,Lot,1.895,1.99,,0.994,1.886,,45.033,1.503,1
19700 Seilhac,Nouvelle-Aquitaine,Corrèze,1.868,1.917,,1.038,1.838,,45.36779,1.7155,1
19800 Eyrein,Nouvelle-Aquitaine,Corrèze,1.939,1.965,1.946,,,,45.342565585200006,1.93384921776,1
19800 Vitrac-sur-Montane,Nouvelle-Aquitaine,Corrèze,1.964,1.99,,,1.935,1.054,45.3594571,1.9372625,1
20000 Ajaccio,Corse,Corse-du-Sud,1.9556,,1.9146,,,,41.9271153567,8.743003887643999,5
20090 Ajaccio,Corse,Corse-du-Sud,1.951125,,1.90575,1.889,1.995,1.283,41.93737441444445,8.760505799999999,9
20100 Sartène,Corse,Corse-du-Sud,1.99,,1.99,,,,41.62966666666667,8.962,3
20110 Propriano,Corse,Corse-du-Sud,1.9849999999999999,,1.955,,,1.31,41.671499999999995,8.911000000000001,2
20111 Casaglione,Corse,Corse-du-Sud,1.925,,1.869,,,,42.062,8.741,1
20113 Olmeto,Corse,Corse-du-Sud,1.99,,1.96,,,,41.706705,8.90585,2
20115 Piana,Corse,Corse-du-Sud,1.992,,1.951,,,,42.237280621206,8.6358371530654,1
20118 Coggia,Corse,Corse-du-Sud,1.959,,1.989,,,,42.102,8.707,1
20118 Vico,Corse,Corse-du-Sud,1.93,,1.87,,,,42.116640453,8.69154694059,1
20129 Bastelicaccia,Corse,Corse-du-Sud,1.943,,1.898,,,,41.924,8.825,1
20130 Cargèse,Corse,Corse-du-Sud,1.99,,1.99,,,,42.134,8.598,1
20131 Pianottoli-Caldarello,Corse,Corse-du-Sud,1.99,,1.99,,1.99,,41.4918403216655,9.05539929719865,2
20137 Lecci,Corse,Corse-du-Sud,1.99,,1.99,,,,41.639,9.336,1
20137 Porto-Vecchio,Corse,Corse-du-Sud,1.9847142857142859,,1.9868571428571429,,,1.2349999999999999,41.600334003148426,9.278699620022413,7
20140 Petreto-Bicchisano,Corse,Corse-du-Sud,1.995,,1.969,,,,41.78547,8.97933,1
20144 Zonza,Corse,Corse-du-Sud,1.9825,,1.9825,,,,41.6995,9.3465,2
20145 Sari-Solenzara,Corse,Corse-du-Sud,1.94,,1.92,,,,41.8534432,9.3821111,2
20147 Serriera,Corse,Corse-du-Sud,1.989,,1.935,,,,42.289,8.7,1
20148 Cozzano,Corse,Corse-du-Sud,1.978,,1.937,,,,41.935,9.158,1
20150 Ota,Corse,Corse-du-Sud,1.99,,1.99,,,,42.262,8.709,1
20153 Guitera-les-Bains,Corse,Corse-du-Sud,1.98,,1.93,,,,41.901,9.098,1
20156 Serra-di-Ferro,Corse,Corse-du-Sud,2.0,,1.97,,,,41.70911,8.7926,1
20160 Vico,Corse,Corse-du-Sud,2.0,,1.96,,,,42.167,8.799,1
20166 Grosseto-Prugna,Corse,Corse-du-Sud,1.9526666666666668,,1.9093333333333333,,,,41.89076666666667,8.808566666666666,3
20166 Pietrosella,Corse,Corse-du-Sud,1.95,,1.91,,,,41.835,8.779,1
20167 Ajaccio,Corse,Corse-du-Sud,1.911,,1.9395,,,,41.94902715,8.7669992,2
20167 Alata,Corse,Corse-du-Sud,1.933,,1.885,,,,41.965,8.782,1
20167 Sarrola-Carcopino,Corse,Corse-du-Sud,1.9460000000000002,,1.892,,,1.283,41.98776657268699,8.83074664102,2
20169 Bonifacio,Corse,Corse-du-Sud,1.99,,1.95,,,,41.3915,9.1655,2
20170 Levie,Corse,Corse-du-Sud,1.9,,1.99,,,,41.70379437476,9.123308927933401,1
20200 Bastia,Corse,Haute-Corse,1.9849999999999999,,1.96,,,,42.703790700809,9.44759677263375,2
20200 Campile,Corse,Haute-Corse,1.94,1.95,1.99,,,,42.502395368601,9.378309900000101,1
20200 San-Martino-di-Lota,Corse,Haute-Corse,1.99,,1.96,,,,42.728585259999996,9.45947796,1
20200 Ville-di-Pietrabugno,Corse,Haute-Corse,1.99,,1.96,,,,42.71166175624099,9.4542959899902,1
20213 Penta-di-Casinca,Corse,Haute-Corse,1.955,,1.9049999999999998,,,,42.445499999999996,9.508,2
20213 Sorbo-Ocagnano,Corse,Haute-Corse,1.94,,1.89,,,,42.487,9.48,1
20215 Vescovato,Corse,Haute-Corse,1.94,,1.91,,,,42.5,9.466,1
20217 Saint-Florent,Corse,Haute-Corse,1.9816666666666667,,1.9766666666666666,,,,42.679624796263,9.304320166399267,3
20218 Morosaglia,Corse,Haute-Corse,1.9649999999999999,,1.9256,,,,42.4576618062182,9.22552149652444,5
20219 Vivario,Corse,Haute-Corse,1.969,,1.939,,,,42.172,9.17,1
20220 Aregno,Corse,Haute-Corse,1.98,,1.94,,,,42.609,8.875,1
20220 L'Île-Rousse,Corse,Haute-Corse,1.9526666666666668,,1.9526666666666668,,,,42.63216,8.943583333333335,3
20221 Cervione,Corse,Haute-Corse,1.92,,1.86,,,,42.325,9.539,1
20222 Brando,Corse,Haute-Corse,1.99,,1.94,,,,42.765,9.469,1
20224 Calacuccia,Corse,Haute-Corse,1.99,,1.96,,,,42.33399,9.00872,1
20228 Luri,Corse,Haute-Corse,1.98,,2.005,,,,42.887900061051,9.4730503471249,2
20230 Poggio-Mezzana,Corse,Haute-Corse,1.88,,1.91,,,,42.4,9.53,1
20230 San-Giuliano,Corse,Haute-Corse,1.92,,1.86,,,,42.259,9.547,1
20230 San-Nicolao,Corse,Haute-Corse,1.938,,1.9475,,,,42.3700330251605,9.51838200839115,2
20230 Sant'Andréa-di-Cotone,Corse,Haute-Corse,1.88,,1.929,,,,42.314264859039994,9.4890725133984,1
20235 Castello-di-Rostino,Corse,Haute-Corse,1.98,,1.93,,,,42.4882,9.28306,1
20240 Ghisonaccia,Corse,Haute-Corse,1.93,,1.89,,,1.35,42.018377861986494,9.4074927168934,4
20240 Ventiseri,Corse,Haute-Corse,1.95,,1.89,,,,41.916,9.393,1
20243 Prunelli-di-Fiumorbo,Corse,Haute-Corse,1.92,,1.89,,,1.36,41.9986857757,9.40286,1
20245 Galéria,Corse,Haute-Corse,2.047,,2.067,,,,42.406068193239996,8.69248715092475,2
20248 Rogliano,Corse,Haute-Corse,1.94,,1.99,,,,42.956669635916,9.4453596189195,1
20250 Corte,Corse,Haute-Corse,1.96,,1.9849999999999999,,,1.25,42.30838083081625,9.1546981092294,4
20260 Calvi,Corse,Haute-Corse,1.90375,,1.885,,,1.24,42.55972534943825,8.767481394194975,4
20270 Aléria,Corse,Haute-Corse,1.964,,1.9545,,,,42.114884437942,9.513833031567149,2
20290 Borgo,Corse,Haute-Corse,1.96,,1.93,,,1.25,42.56756,9.44075,1
20290 Lucciana,Corse,Haute-Corse,1.96225,,1.93225,,,,42.541225,9.435675,4
20600 Bastia,Corse,Haute-Corse,1.9883333333333333,,1.9400000000000002,,,1.25,42.67821256936867,9.444015940212068,6
20600 Furiani,Corse,Haute-Corse,1.99,,1.96,,,,42.657765,9.4317675,4
20620 Biguglia,Corse,Haute-Corse,1.97,,1.9566666666666668,,,1.25,42.61394333333334,9.434213333333332,3
21000 Dijon,Bourgogne-Franche-Comté,Côte-d'Or,1.908076923076923,1.9355454545454547,1.9100000000000001,1.057,1.8740909090909093,0.9615,47.32716076923077,5.047109230769231,13
21110 Aiserey,Bourgogne-Franche-Comté,Côte-d'Or,1.929,1.999,1.979,,,,47.179,5.158,1
21110 Bretenière,Bourgogne-Franche-Comté,Côte-d'Or,1.829,,1.839,,1.799,,47.24,5.114,1
21110 Genlis,Bourgogne-Franche-Comté,Côte-d'Or,1.902,1.9563333333333333,1.9255,1.069,1.869,,47.242740009287,5.2159746347169,3
21120 Is-sur-Tille,Bourgogne-Franche-Comté,Côte-d'Or,1.8926666666666667,1.949,1.89,1.0590000000000002,1.849,,47.52857,5.113626666666668,3
21120 Til-Châtel,Bourgogne-Franche-Comté,Côte-d'Or,1.9495,2.0145,1.949,1.21,1.95,,47.516000000000005,5.176,2
21121 Fontaine-lès-Dijon,Bourgogne-Franche-Comté,Côte-d'Or,1.87925,1.891,1.819,1.089,1.8743333333333334,,47.34625,5.032500000000001,4
21130 Auxonne,Bourgogne-Franche-Comté,Côte-d'Or,1.8613333333333333,1.884,,1.014,1.8246666666666667,1.979,47.187452735045326,5.393226425048801,3
